{
  "last_updated": "2025-10-26 18:23:10 UTC",
  "total_count": 236,
  "neurologists": [
    {
      "npi": "1013335330",
      "name": "KUNAKORN ATCHANEEYASAKUL",
      "credentials": "",
      "specialty": "Psychiatry & Neurology, Vascular Neurology",
      "is_vascular_neurology": true,
      "organization": "",
      "address": "1100 9TH AVE",
      "city": "SEATTLE",
      "state": "WA",
      "zip": "981012756",
      "phone": "206-223-7525",
      "latitude": null,
      "longitude": null,
      "source": "NPPES"
    },
    {
      "npi": "1881928414",
      "name": "SARABJIT KAUR ATWAL, MD",
      "credentials": "MD",
      "specialty": "Psychiatry & Neurology, Vascular Neurology",
      "is_vascular_neurology": true,
      "organization": "",
      "address": "1100 GOETHALS DRIVE",
      "city": "RICHLAND",
      "state": "WA",
      "zip": "993523304",
      "phone": "509-946-7931",
      "latitude": null,
      "longitude": null,
      "source": "NPPES"
    },
    {
      "npi": "1528173408",
      "name": "CLAIRE J. CREUTZFELDT, MD",
      "credentials": "MD",
      "specialty": "Psychiatry & Neurology, Vascular Neurology",
      "is_vascular_neurology": true,
      "organization": "",
      "address": "325 9TH AVE",
      "city": "SEATTLE",
      "state": "WA",
      "zip": "981042420",
      "phone": "206-744-3422",
      "latitude": null,
      "longitude": null,
      "source": "NPPES"
    },
    {
      "npi": "1851449938",
      "name": "AIXA DAMARIS ESPINOSA-MORALES, M.D.",
      "credentials": "M.D.",
      "specialty": "Psychiatry & Neurology, Vascular Neurology",
      "is_vascular_neurology": true,
      "organization": "",
      "address": "3125 TRANSVERSE DR",
      "city": "TOLEDO",
      "state": "WA",
      "zip": "436148008",
      "phone": "419-383-3760",
      "latitude": null,
      "longitude": null,
      "source": "NPPES"
    },
    {
      "npi": "1902898877",
      "name": "MADELEINE C GERAGHTY, MD",
      "credentials": "MD",
      "specialty": "Psychiatry & Neurology, Vascular Neurology",
      "is_vascular_neurology": true,
      "organization": "",
      "address": "400 E 5TH AVE",
      "city": "SPOKANE",
      "state": "WA",
      "zip": "992021334",
      "phone": "509-838-2531",
      "latitude": null,
      "longitude": null,
      "source": "NPPES"
    },
    {
      "npi": "1528494689",
      "name": "KHADIJA IRSHAD, M.D.",
      "credentials": "M.D.",
      "specialty": "Psychiatry & Neurology, Vascular Neurology",
      "is_vascular_neurology": true,
      "organization": "",
      "address": "11215 METRO PKWY STE 1",
      "city": "FORT MYERS",
      "state": "WA",
      "zip": "339661206",
      "phone": "239-208-2212",
      "latitude": null,
      "longitude": null,
      "source": "NPPES"
    },
    {
      "npi": "1841367786",
      "name": "TONG JIANG, MD",
      "credentials": "MD",
      "specialty": "Psychiatry & Neurology, Vascular Neurology",
      "is_vascular_neurology": true,
      "organization": "",
      "address": "6041 CADILLAC AVE",
      "city": "LOS ANGELES",
      "state": "WA",
      "zip": "900341702",
      "phone": "323-857-2000",
      "latitude": null,
      "longitude": null,
      "source": "NPPES"
    },
    {
      "npi": "1497076905",
      "name": "RIZWAN KALANI, M.D.",
      "credentials": "M.D.",
      "specialty": "Psychiatry & Neurology, Vascular Neurology",
      "is_vascular_neurology": true,
      "organization": "",
      "address": "410 9TH AVE N",
      "city": "SEATTLE",
      "state": "WA",
      "zip": "981094708",
      "phone": "206-744-3992",
      "latitude": null,
      "longitude": null,
      "source": "NPPES"
    },
    {
      "npi": "1386805059",
      "name": "ASIF ALI KHAN, M.D.",
      "credentials": "M.D.",
      "specialty": "Psychiatry & Neurology, Vascular Neurology",
      "is_vascular_neurology": true,
      "organization": "",
      "address": "1135 116TH AVE NE STE 500",
      "city": "BELLEVUE",
      "state": "WA",
      "zip": "98004",
      "phone": "425-709-7055",
      "latitude": 47.6144219,
      "longitude": -122.192337,
      "source": "NPPES"
    },
    {
      "npi": "1871049809",
      "name": "MEGHANA SRINIVAS KINARIWALA, M.D",
      "credentials": "M.D",
      "specialty": "Psychiatry & Neurology, Vascular Neurology",
      "is_vascular_neurology": true,
      "organization": "",
      "address": "105 W 8TH AVE STE 318C",
      "city": "SPOKANE",
      "state": "WA",
      "zip": "992042318",
      "phone": "509-474-6650",
      "latitude": null,
      "longitude": null,
      "source": "NPPES"
    },
    {
      "npi": "1356541320",
      "name": "RAJAT KUMAR, M.D.",
      "credentials": "M.D.",
      "specialty": "Psychiatry & Neurology, Vascular Neurology",
      "is_vascular_neurology": true,
      "organization": "",
      "address": "1 PLAINSBORO ROAD",
      "city": "PLAINSBORO",
      "state": "WA",
      "zip": "085361913",
      "phone": "774-287-0539",
      "latitude": null,
      "longitude": null,
      "source": "NPPES"
    },
    {
      "npi": "1578588752",
      "name": "GEORGE A LOPEZ, MD",
      "credentials": "MD",
      "specialty": "Psychiatry & Neurology, Vascular Neurology",
      "is_vascular_neurology": true,
      "organization": "",
      "address": "500 17TH AVE",
      "city": "SEATTLE",
      "state": "WA",
      "zip": "981225711",
      "phone": "206-320-2800",
      "latitude": null,
      "longitude": null,
      "source": "NPPES"
    },
    {
      "npi": "1295796647",
      "name": "LAURA M LYNAM, M.D.",
      "credentials": "M.D.",
      "specialty": "Psychiatry & Neurology, Vascular Neurology",
      "is_vascular_neurology": true,
      "organization": "",
      "address": "316 MARTIN LUTHER KING JR WAY STE 408",
      "city": "TACOMA",
      "state": "WA",
      "zip": "984054261",
      "phone": "253-403-0344",
      "latitude": null,
      "longitude": null,
      "source": "NPPES"
    },
    {
      "npi": "1902837180",
      "name": "BRUCE COLE MACKAY, MD",
      "credentials": "MD",
      "specialty": "Psychiatry & Neurology, Vascular Neurology",
      "is_vascular_neurology": true,
      "organization": "",
      "address": "710 BIRCHWOOD AVE SUITE 203",
      "city": "BELLINGHAM",
      "state": "WA",
      "zip": "982251857",
      "phone": "360-788-6870",
      "latitude": null,
      "longitude": null,
      "source": "NPPES"
    },
    {
      "npi": "1629327986",
      "name": "YI MAO, MBBS",
      "credentials": "MBBS",
      "specialty": "Psychiatry & Neurology, Vascular Neurology",
      "is_vascular_neurology": true,
      "organization": "",
      "address": "101 W 8TH AVE",
      "city": "SPOKANE",
      "state": "WA",
      "zip": "992042307",
      "phone": "509-474-2894",
      "latitude": null,
      "longitude": null,
      "source": "NPPES"
    },
    {
      "npi": "1447263769",
      "name": "NYDIA MARGARITA MELENDEZ-BRUGUERAS, M.D.",
      "credentials": "M.D.",
      "specialty": "Psychiatry & Neurology, Vascular Neurology",
      "is_vascular_neurology": true,
      "organization": "",
      "address": "910 W 5TH AVE STE 1000",
      "city": "SPOKANE",
      "state": "WA",
      "zip": "992042975",
      "phone": "509-838-2531",
      "latitude": null,
      "longitude": null,
      "source": "NPPES"
    },
    {
      "npi": "1326160177",
      "name": "RAVI SIVASANKARA MENON, M.D.",
      "credentials": "M.D.",
      "specialty": "Psychiatry & Neurology, Vascular Neurology",
      "is_vascular_neurology": true,
      "organization": "",
      "address": "747 BROADWAY",
      "city": "SEATTLE",
      "state": "WA",
      "zip": "981224379",
      "phone": "206-215-3958",
      "latitude": null,
      "longitude": null,
      "source": "NPPES"
    },
    {
      "npi": "1073675930",
      "name": "FATIMA E MILFRED, M.D.",
      "credentials": "M.D.",
      "specialty": "Psychiatry & Neurology, Vascular Neurology",
      "is_vascular_neurology": true,
      "organization": "",
      "address": "925 SENECA ST MS:H4-473",
      "city": "SEATTLE",
      "state": "WA",
      "zip": "98101",
      "phone": "206-341-0737",
      "latitude": 47.6038321,
      "longitude": -122.330062,
      "source": "NPPES"
    },
    {
      "npi": "1235115361",
      "name": "ZEYAD MORCOS, MD",
      "credentials": "MD",
      "specialty": "Psychiatry & Neurology, Vascular Neurology",
      "is_vascular_neurology": true,
      "organization": "",
      "address": "13531 JUANITA WOODINVILLE WAY NE",
      "city": "KIRKLAND",
      "state": "WA",
      "zip": "980345225",
      "phone": "425-636-2400",
      "latitude": null,
      "longitude": null,
      "source": "NPPES"
    },
    {
      "npi": "1629861471",
      "name": "",
      "credentials": "",
      "specialty": "Psychiatry & Neurology, Vascular Neurology",
      "is_vascular_neurology": true,
      "organization": "NEUROLOGY SPECIALTY",
      "address": "1940 116TH AVE NE STE 200",
      "city": "BELLEVUE",
      "state": "WA",
      "zip": "980043074",
      "phone": "253-878-5193",
      "latitude": null,
      "longitude": null,
      "source": "NPPES"
    },
    {
      "npi": "1801276571",
      "name": "KYLE Y OGAMI, MD",
      "credentials": "MD",
      "specialty": "Psychiatry & Neurology, Vascular Neurology",
      "is_vascular_neurology": true,
      "organization": "",
      "address": "500 17TH AVE",
      "city": "SEATTLE",
      "state": "WA",
      "zip": "981225711",
      "phone": "206-320-2800",
      "latitude": null,
      "longitude": null,
      "source": "NPPES"
    },
    {
      "npi": "1215295563",
      "name": "SEA MI PARK, M.D. ,Ph.D.",
      "credentials": "M.D. ,Ph.D.",
      "specialty": "Psychiatry & Neurology, Vascular Neurology",
      "is_vascular_neurology": true,
      "organization": "",
      "address": "525 LILLY RD NE STE 210",
      "city": "OLYMPIA",
      "state": "WA",
      "zip": "985065101",
      "phone": "360-413-8550",
      "latitude": null,
      "longitude": null,
      "source": "NPPES"
    },
    {
      "npi": "1972506814",
      "name": "JENNIFER KAY PARY, MD",
      "credentials": "MD",
      "specialty": "Psychiatry & Neurology, Vascular Neurology",
      "is_vascular_neurology": true,
      "organization": "",
      "address": "801 W 5TH AVE STE 323",
      "city": "SPOKANE",
      "state": "WA",
      "zip": "992042800",
      "phone": "509-324-6464",
      "latitude": null,
      "longitude": null,
      "source": "NPPES"
    },
    {
      "npi": "1598877565",
      "name": "MICHAEL CHARLES PREVITI, MD",
      "credentials": "MD",
      "specialty": "Psychiatry & Neurology, Vascular Neurology",
      "is_vascular_neurology": true,
      "organization": "",
      "address": "3915 TALBOT RD S STE 104",
      "city": "RENTON",
      "state": "WA",
      "zip": "980555738",
      "phone": "425-656-5566",
      "latitude": null,
      "longitude": null,
      "source": "NPPES"
    },
    {
      "npi": "1881045433",
      "name": "SHILPA SAMUDRALA, D.O.",
      "credentials": "D.O.",
      "specialty": "Psychiatry & Neurology, Vascular Neurology",
      "is_vascular_neurology": true,
      "organization": "",
      "address": "1700 13TH ST",
      "city": "EVERETT",
      "state": "WA",
      "zip": "982011689",
      "phone": "425-297-5286",
      "latitude": null,
      "longitude": null,
      "source": "NPPES"
    },
    {
      "npi": "1831623958",
      "name": "RACHAEL EVELYN CAMPISI SCHUTZ, M.D.",
      "credentials": "M.D.",
      "specialty": "Psychiatry & Neurology, Vascular Neurology",
      "is_vascular_neurology": true,
      "organization": "",
      "address": "12039 NE 128TH ST STE 300",
      "city": "KIRKLAND",
      "state": "WA",
      "zip": "980343029",
      "phone": "425-899-3135",
      "latitude": null,
      "longitude": null,
      "source": "NPPES"
    },
    {
      "npi": "1891258000",
      "name": "ALISON P SEITZ, MD",
      "credentials": "MD",
      "specialty": "Psychiatry & Neurology, Vascular Neurology",
      "is_vascular_neurology": true,
      "organization": "",
      "address": "325 9TH AVE",
      "city": "SEATTLE",
      "state": "WA",
      "zip": "981042420",
      "phone": "206-520-5000",
      "latitude": null,
      "longitude": null,
      "source": "NPPES"
    },
    {
      "npi": "1710277918",
      "name": "NIRAV H. SHAH, M.D.",
      "credentials": "M.D.",
      "specialty": "Psychiatry & Neurology, Vascular Neurology",
      "is_vascular_neurology": true,
      "organization": "",
      "address": "1779 KIRBY PKWY # 18009",
      "city": "MEMPHIS",
      "state": "WA",
      "zip": "381383666",
      "phone": "833-497-3786",
      "latitude": null,
      "longitude": null,
      "source": "NPPES"
    },
    {
      "npi": "1124361993",
      "name": "MALVEEKA SHARMA, M.D",
      "credentials": "M.D",
      "specialty": "Psychiatry & Neurology, Vascular Neurology",
      "is_vascular_neurology": true,
      "organization": "",
      "address": "325 9TH AVE RM 3CT70",
      "city": "SEATTLE",
      "state": "WA",
      "zip": "98104",
      "phone": "206-744-3251",
      "latitude": 47.6038321,
      "longitude": -122.330062,
      "source": "NPPES"
    },
    {
      "npi": "1952762874",
      "name": "AMITA SINGH, M.D.",
      "credentials": "M.D.",
      "specialty": "Psychiatry & Neurology, Vascular Neurology",
      "is_vascular_neurology": true,
      "organization": "",
      "address": "1600 SW ARCHER RD",
      "city": "GAINESVILLE",
      "state": "WA",
      "zip": "326106421",
      "phone": "352-273-5550",
      "latitude": null,
      "longitude": null,
      "source": "NPPES"
    },
    {
      "npi": "1114156940",
      "name": "ALI SULTAN-QURRAIE, M.D.",
      "credentials": "M.D.",
      "specialty": "Psychiatry & Neurology, Vascular Neurology",
      "is_vascular_neurology": true,
      "organization": "",
      "address": "400 S 43RD ST",
      "city": "RENTON",
      "state": "WA",
      "zip": "980555714",
      "phone": "425-656-5566",
      "latitude": null,
      "longitude": null,
      "source": "NPPES"
    },
    {
      "npi": "1740607183",
      "name": "BREANA L TAYLOR, M.D.",
      "credentials": "M.D.",
      "specialty": "Psychiatry & Neurology, Vascular Neurology",
      "is_vascular_neurology": true,
      "organization": "",
      "address": "325 9TH AVE",
      "city": "SEATTLE",
      "state": "WA",
      "zip": "98104",
      "phone": "206-520-5000",
      "latitude": 47.6043048,
      "longitude": -122.3240717,
      "source": "NPPES"
    },
    {
      "npi": "1255742227",
      "name": "DANOUSHKA LORIS TEMEME, MD",
      "credentials": "MD",
      "specialty": "Psychiatry & Neurology, Vascular Neurology",
      "is_vascular_neurology": true,
      "organization": "",
      "address": "11215 METRO PKWY STE 1",
      "city": "FORT MYERS",
      "state": "WA",
      "zip": "339661206",
      "phone": "239-208-2212",
      "latitude": null,
      "longitude": null,
      "source": "NPPES"
    },
    {
      "npi": "1609198779",
      "name": "AMBOOJ TIWARI, MD",
      "credentials": "MD",
      "specialty": "Psychiatry & Neurology, Vascular Neurology",
      "is_vascular_neurology": true,
      "organization": "",
      "address": "15031 RINALDI ST",
      "city": "MISSION HILLS",
      "state": "WA",
      "zip": "913451207",
      "phone": "818-365-8051",
      "latitude": null,
      "longitude": null,
      "source": "NPPES"
    },
    {
      "npi": "1689628745",
      "name": "TIMOTHY PURNELL UPCHURCH, MD",
      "credentials": "MD",
      "specialty": "Psychiatry & Neurology, Vascular Neurology",
      "is_vascular_neurology": true,
      "organization": "",
      "address": "110 CORPORATE DR",
      "city": "JOHNSON CITY",
      "state": "WA",
      "zip": "376042008",
      "phone": "423-328-0363",
      "latitude": null,
      "longitude": null,
      "source": "NPPES"
    },
    {
      "npi": "1669869574",
      "name": "CARSON VAN SANFORD",
      "credentials": "",
      "specialty": "Psychiatry & Neurology, Vascular Neurology",
      "is_vascular_neurology": true,
      "organization": "",
      "address": "1321 COLBY AVE",
      "city": "EVERETT",
      "state": "WA",
      "zip": "982011665",
      "phone": "425-261-2000",
      "latitude": null,
      "longitude": null,
      "source": "NPPES"
    },
    {
      "npi": "1437235256",
      "name": "JONATHAN RICHARD WEINSTEIN",
      "credentials": "",
      "specialty": "Psychiatry & Neurology, Vascular Neurology",
      "is_vascular_neurology": true,
      "organization": "",
      "address": "HARBORVIEW MEDICAL CENTER 325 9TH AVE",
      "city": "SEATTLE",
      "state": "WA",
      "zip": "98104",
      "phone": "206-731-3992",
      "latitude": 47.6043048,
      "longitude": -122.3240717,
      "source": "NPPES"
    },
    {
      "npi": "1730618349",
      "name": "NANDINI SWATI ABBURI",
      "credentials": "",
      "specialty": "Neurology",
      "is_vascular_neurology": false,
      "organization": "",
      "address": "1959 NE PACIFIC ST",
      "city": "SEATTLE",
      "state": "WA",
      "zip": "981950001",
      "phone": "206-543-2340",
      "latitude": null,
      "longitude": null,
      "source": "NPPES"
    },
    {
      "npi": "1124367776",
      "name": "TILAHUN HAILE ABRAHA, MD",
      "credentials": "MD",
      "specialty": "Neurology",
      "is_vascular_neurology": false,
      "organization": "",
      "address": "317 NINE BARK ST NW",
      "city": "OLYMPIA",
      "state": "WA",
      "zip": "985028709",
      "phone": "703-298-2838",
      "latitude": null,
      "longitude": null,
      "source": "NPPES"
    },
    {
      "npi": "1518353234",
      "name": "RINU THOMAS ABRAHAM, MD",
      "credentials": "MD",
      "specialty": "Neurology",
      "is_vascular_neurology": false,
      "organization": "",
      "address": "240 W THOMAS RD # 400",
      "city": "PHOENIX",
      "state": "WA",
      "zip": "850134407",
      "phone": "602-406-6262",
      "latitude": null,
      "longitude": null,
      "source": "NPPES"
    },
    {
      "npi": "1326540337",
      "name": "ALI ABU-ALYA, DO",
      "credentials": "DO",
      "specialty": "Neurology",
      "is_vascular_neurology": false,
      "organization": "",
      "address": "325 9TH AVE",
      "city": "SEATTLE",
      "state": "WA",
      "zip": "981042420",
      "phone": "206-685-5138",
      "latitude": null,
      "longitude": null,
      "source": "NPPES"
    },
    {
      "npi": "1619059870",
      "name": "CARLOS F ACEVEDO, md",
      "credentials": "md",
      "specialty": "Neurology",
      "is_vascular_neurology": false,
      "organization": "",
      "address": "77 WAINWRIGHT DR",
      "city": "WALLA WALLA",
      "state": "WA",
      "zip": "993623975",
      "phone": "509-525-5200",
      "latitude": null,
      "longitude": null,
      "source": "NPPES"
    },
    {
      "npi": "1427400746",
      "name": "ABHISHEK ACHAR, DO",
      "credentials": "DO",
      "specialty": "Neurology",
      "is_vascular_neurology": false,
      "organization": "",
      "address": "11215 METRO PKWY STE 100",
      "city": "FORT MYERS",
      "state": "WA",
      "zip": "339661206",
      "phone": "239-208-2206",
      "latitude": null,
      "longitude": null,
      "source": "NPPES"
    },
    {
      "npi": "1831381219",
      "name": "SEEMA AFRIDI, MD",
      "credentials": "MD",
      "specialty": "Neurology",
      "is_vascular_neurology": false,
      "organization": "",
      "address": "710 BIRCHWOOD AVE SUITE 201",
      "city": "BELLINGHAM",
      "state": "WA",
      "zip": "982251720",
      "phone": "360-788-6870",
      "latitude": null,
      "longitude": null,
      "source": "NPPES"
    },
    {
      "npi": "1275088445",
      "name": "NEHA AGARWAL, MD",
      "credentials": "MD",
      "specialty": "Neurology",
      "is_vascular_neurology": false,
      "organization": "",
      "address": "325 9TH AVE",
      "city": "SEATTLE",
      "state": "WA",
      "zip": "981042420",
      "phone": "206-520-5000",
      "latitude": null,
      "longitude": null,
      "source": "NPPES"
    },
    {
      "npi": "1245223296",
      "name": "PINKY AGARWAL, MD",
      "credentials": "MD",
      "specialty": "Neurology",
      "is_vascular_neurology": false,
      "organization": "",
      "address": "12039 NE 128TH ST SUITE 300",
      "city": "KIRKLAND",
      "state": "WA",
      "zip": "980343030",
      "phone": "425-899-3123",
      "latitude": null,
      "longitude": null,
      "source": "NPPES"
    },
    {
      "npi": "1215371935",
      "name": "MAKEDA E AGONAFER, M.D.",
      "credentials": "M.D.",
      "specialty": "Neurology",
      "is_vascular_neurology": false,
      "organization": "",
      "address": "400 S 43RD ST",
      "city": "RENTON",
      "state": "WA",
      "zip": "980555714",
      "phone": "425-690-3585",
      "latitude": null,
      "longitude": null,
      "source": "NPPES"
    },
    {
      "npi": "1366805756",
      "name": "LISA AKIYAMA, M.D.",
      "credentials": "M.D.",
      "specialty": "Neurology",
      "is_vascular_neurology": false,
      "organization": "",
      "address": "1959 NE PACIFIC ST.",
      "city": "SEATTLE",
      "state": "WA",
      "zip": "981950001",
      "phone": "206-520-5000",
      "latitude": null,
      "longitude": null,
      "source": "NPPES"
    },
    {
      "npi": "1275928715",
      "name": "KEERTHANA AKKINENI, M.D.",
      "credentials": "M.D.",
      "specialty": "Neurology",
      "is_vascular_neurology": false,
      "organization": "",
      "address": "1161 21ST AVE S A-1124 MCN",
      "city": "NASHVILLE",
      "state": "WA",
      "zip": "372322551",
      "phone": "615-936-2287",
      "latitude": null,
      "longitude": null,
      "source": "NPPES"
    },
    {
      "npi": "1891082293",
      "name": "AWS ALAWI, M.D.",
      "credentials": "M.D.",
      "specialty": "Neurology",
      "is_vascular_neurology": false,
      "organization": "",
      "address": "500 17TH AVE",
      "city": "SEATTLE",
      "state": "WA",
      "zip": "981225711",
      "phone": "206-320-2000",
      "latitude": null,
      "longitude": null,
      "source": "NPPES"
    },
    {
      "npi": "1003969684",
      "name": "JASON LAMAR ALDRED, M.D.",
      "credentials": "M.D.",
      "specialty": "Neurology",
      "is_vascular_neurology": false,
      "organization": "",
      "address": "610 S SHERMAN ST SUITE 201",
      "city": "SPOKANE",
      "state": "WA",
      "zip": "992021342",
      "phone": "509-458-7720",
      "latitude": null,
      "longitude": null,
      "source": "NPPES"
    },
    {
      "npi": "1982832218",
      "name": "",
      "credentials": "",
      "specialty": "Neurology",
      "is_vascular_neurology": false,
      "organization": "ALEX D. COOPER, MD, PLLC",
      "address": "1570 N 115TH ST SUITE 14",
      "city": "SEATTLE",
      "state": "WA",
      "zip": "981338412",
      "phone": "206-365-0111",
      "latitude": null,
      "longitude": null,
      "source": "NPPES"
    },
    {
      "npi": "1992726350",
      "name": "JOHN JAY ALEXANDER, MD",
      "credentials": "MD",
      "specialty": "Neurology",
      "is_vascular_neurology": false,
      "organization": "",
      "address": "4800 SAND POINT WAY NE",
      "city": "SEATTLE",
      "state": "WA",
      "zip": "981053901",
      "phone": "206-987-2078",
      "latitude": null,
      "longitude": null,
      "source": "NPPES"
    },
    {
      "npi": "1902425549",
      "name": "KHADIJA AWAIS ALI, MD",
      "credentials": "MD",
      "specialty": "Neurology",
      "is_vascular_neurology": false,
      "organization": "",
      "address": "1161 21ST AVE S",
      "city": "NASHVILLE",
      "state": "WA",
      "zip": "372323438",
      "phone": "615-936-0060",
      "latitude": null,
      "longitude": null,
      "source": "NPPES"
    },
    {
      "npi": "1992571285",
      "name": "BRANDON ALINA, PT, DPT",
      "credentials": "PT, DPT",
      "specialty": "Neurology",
      "is_vascular_neurology": false,
      "organization": "",
      "address": "32030 23RD AVE S",
      "city": "FEDERAL WAY",
      "state": "WA",
      "zip": "980036031",
      "phone": "253-946-4852",
      "latitude": null,
      "longitude": null,
      "source": "NPPES"
    },
    {
      "npi": "1326075342",
      "name": "JASON W ALLEN, MD, PhD",
      "credentials": "MD, PhD",
      "specialty": "Neurology",
      "is_vascular_neurology": false,
      "organization": "",
      "address": "714 N SENATE AVE STE 200",
      "city": "INDIANAPOLIS",
      "state": "WA",
      "zip": "462023297",
      "phone": "317-963-0156",
      "latitude": null,
      "longitude": null,
      "source": "NPPES"
    },
    {
      "npi": "1982866158",
      "name": "RACHEL P ALLEN, D.O.",
      "credentials": "D.O.",
      "specialty": "Neurology",
      "is_vascular_neurology": false,
      "organization": "",
      "address": "3901 HOYT AVE",
      "city": "EVERETT",
      "state": "WA",
      "zip": "982014918",
      "phone": "425-339-5408",
      "latitude": null,
      "longitude": null,
      "source": "NPPES"
    },
    {
      "npi": "1912936725",
      "name": "MAZEN ALKAHWAJI ALMIDANI, MD",
      "credentials": "MD",
      "specialty": "Neurology",
      "is_vascular_neurology": false,
      "organization": "",
      "address": "11215 METRO PKWY STE 1",
      "city": "FORT MYERS",
      "state": "WA",
      "zip": "339661206",
      "phone": "239-208-2212",
      "latitude": null,
      "longitude": null,
      "source": "NPPES"
    },
    {
      "npi": "1699726398",
      "name": "F. BLAKE AMBRIDGE, DC.,DACNB",
      "credentials": "DC.,DACNB",
      "specialty": "Neurology",
      "is_vascular_neurology": false,
      "organization": "",
      "address": "1327 W SUPERIOR ST STE 103",
      "city": "SANDPOINT",
      "state": "WA",
      "zip": "838642742",
      "phone": "208-946-5888",
      "latitude": null,
      "longitude": null,
      "source": "NPPES"
    },
    {
      "npi": "1497040703",
      "name": "ANIK JANARDAN AMIN, M.D.",
      "credentials": "M.D.",
      "specialty": "Neurology",
      "is_vascular_neurology": false,
      "organization": "",
      "address": "1100 9TH AVE",
      "city": "SEATTLE",
      "state": "WA",
      "zip": "981012756",
      "phone": "206-223-6600",
      "latitude": null,
      "longitude": null,
      "source": "NPPES"
    },
    {
      "npi": "1760876361",
      "name": "RAIMA MAHMUDA AMIN, M.D.",
      "credentials": "M.D.",
      "specialty": "Neurology",
      "is_vascular_neurology": false,
      "organization": "",
      "address": "1959 NE PACIFIC ST.",
      "city": "SEATTLE",
      "state": "WA",
      "zip": "981950001",
      "phone": "206-205-0005",
      "latitude": null,
      "longitude": null,
      "source": "NPPES"
    },
    {
      "npi": "1962453472",
      "name": "CATHERINE M AMLIE LEFOND, MD",
      "credentials": "MD",
      "specialty": "Neurology",
      "is_vascular_neurology": false,
      "organization": "",
      "address": "SEATTLE CHILDREN'S HOSPITAL 4800 SAND POINT WAY NE",
      "city": "SEATTLE",
      "state": "WA",
      "zip": "98105",
      "phone": "206-987-2078",
      "latitude": 47.6631154,
      "longitude": -122.282532,
      "source": "NPPES"
    },
    {
      "npi": "1639464431",
      "name": "DELA AMOUSSOU, M.D.",
      "credentials": "M.D.",
      "specialty": "Neurology",
      "is_vascular_neurology": false,
      "organization": "",
      "address": "133 W. SANTA CLARA STREET",
      "city": "SIMI VALLEY",
      "state": "WA",
      "zip": "93065",
      "phone": "805-582-4000",
      "latitude": null,
      "longitude": null,
      "source": "NPPES"
    },
    {
      "npi": "1427205939",
      "name": "SONIA ANAND-NICHOLS, MD",
      "credentials": "MD",
      "specialty": "Neurology",
      "is_vascular_neurology": false,
      "organization": "",
      "address": "8014 WARREN DR NW",
      "city": "GIG HARBOR",
      "state": "WA",
      "zip": "983356011",
      "phone": "360-539-8487",
      "latitude": null,
      "longitude": null,
      "source": "NPPES"
    },
    {
      "npi": "1013262153",
      "name": "SANJAY KEVIN ANANDARAM, MD",
      "credentials": "MD",
      "specialty": "Neurology",
      "is_vascular_neurology": false,
      "organization": "",
      "address": "1415 PORTLAND AVE STE 445",
      "city": "ROCHESTER",
      "state": "WA",
      "zip": "146213022",
      "phone": "585-922-4371",
      "latitude": null,
      "longitude": null,
      "source": "NPPES"
    },
    {
      "npi": "1538401336",
      "name": "HALEY ELIZABETH ANDERSON, M.D.",
      "credentials": "M.D.",
      "specialty": "Neurology",
      "is_vascular_neurology": false,
      "organization": "",
      "address": "20200 54TH AVE W",
      "city": "LYNNWOOD",
      "state": "WA",
      "zip": "980366318",
      "phone": "425-672-6400",
      "latitude": null,
      "longitude": null,
      "source": "NPPES"
    },
    {
      "npi": "1134365489",
      "name": "LISSA BROD ANDERSON, M.D.",
      "credentials": "M.D.",
      "specialty": "Neurology",
      "is_vascular_neurology": false,
      "organization": "",
      "address": "1802 YAKIMA AVE STE 208",
      "city": "TACOMA",
      "state": "WA",
      "zip": "984054499",
      "phone": "253-985-2722",
      "latitude": null,
      "longitude": null,
      "source": "NPPES"
    },
    {
      "npi": "1447530027",
      "name": "",
      "credentials": "",
      "specialty": "Neurology",
      "is_vascular_neurology": false,
      "organization": "ARIZONA INJURY MEDICAL ASSOCIATES, P.L.L.C.",
      "address": "4840 E INDIAN SCHOOL RD SUITE 104",
      "city": "PHOENIX",
      "state": "WA",
      "zip": "850185500",
      "phone": "480-347-0941",
      "latitude": null,
      "longitude": null,
      "source": "NPPES"
    },
    {
      "npi": "1649351347",
      "name": "ERIK R ARMITANO, MD",
      "credentials": "MD",
      "specialty": "Neurology",
      "is_vascular_neurology": false,
      "organization": "",
      "address": "13107 121ST WAY NE",
      "city": "KIRKLAND",
      "state": "WA",
      "zip": "98034",
      "phone": "425-899-6200",
      "latitude": 47.717682,
      "longitude": -122.1795132,
      "source": "NPPES"
    },
    {
      "npi": "1871641688",
      "name": "TIMOTHY P. ARMSTRONG, MD",
      "credentials": "MD",
      "specialty": "Neurology",
      "is_vascular_neurology": false,
      "organization": "",
      "address": "PEACEHEALTH MEDICAL GROUP 710 BIRCHWOOD, SUITE 201",
      "city": "BELLINGHAM",
      "state": "WA",
      "zip": "98225",
      "phone": "360-788-6870",
      "latitude": 48.7544012,
      "longitude": -122.478836,
      "source": "NPPES"
    },
    {
      "npi": "1720608235",
      "name": "ALEXANDER JOHN ARNOLD, M.D.",
      "credentials": "M.D.",
      "specialty": "Neurology",
      "is_vascular_neurology": false,
      "organization": "",
      "address": "1959 NE PACIFIC ST, RR650,",
      "city": "SEATTLE",
      "state": "WA",
      "zip": "98195",
      "phone": "206-543-2340",
      "latitude": 47.6038321,
      "longitude": -122.330062,
      "source": "NPPES"
    },
    {
      "npi": "1083243851",
      "name": "KYLE EDWARD ARNOLD, MD",
      "credentials": "MD",
      "specialty": "Neurology",
      "is_vascular_neurology": false,
      "organization": "",
      "address": "1959 NE PACIFIC ST",
      "city": "SEATTLE",
      "state": "WA",
      "zip": "981950001",
      "phone": "719-325-6962",
      "latitude": null,
      "longitude": null,
      "source": "NPPES"
    },
    {
      "npi": "1770967606",
      "name": "DIVYA ARYA, M.D.",
      "credentials": "M.D.",
      "specialty": "Neurology",
      "is_vascular_neurology": false,
      "organization": "",
      "address": "950 E MOUNTAIN BLVD",
      "city": "WILKES BARRE",
      "state": "WA",
      "zip": "187110028",
      "phone": "570-808-3200",
      "latitude": null,
      "longitude": null,
      "source": "NPPES"
    },
    {
      "npi": "1912569963",
      "name": "AHMER ASIF, MD",
      "credentials": "MD",
      "specialty": "Neurology",
      "is_vascular_neurology": false,
      "organization": "",
      "address": "920 STANTON L YOUNG BLVD # WP2040",
      "city": "OKLAHOMA CITY",
      "state": "WA",
      "zip": "731045036",
      "phone": "405-271-4113",
      "latitude": null,
      "longitude": null,
      "source": "NPPES"
    },
    {
      "npi": "1194160812",
      "name": "",
      "credentials": "",
      "specialty": "Neurology",
      "is_vascular_neurology": false,
      "organization": "ASSOCIATION OF UNIVERSITY PHYSICIANS",
      "address": "325 9TH AVE HARBORVIEW MEDICAL CENTER",
      "city": "SEATTLE",
      "state": "WA",
      "zip": "981042420",
      "phone": "206-543-6420",
      "latitude": null,
      "longitude": null,
      "source": "NPPES"
    },
    {
      "npi": "1093736621",
      "name": "",
      "credentials": "",
      "specialty": "Internal Medicine, Cardiovascular Disease",
      "is_vascular_neurology": true,
      "organization": "ASSOCIATION OF UNIVERSITY PHYSICIANS",
      "address": "701 5TH AVE SUITE 700",
      "city": "SEATTLE",
      "state": "WA",
      "zip": "981047097",
      "phone": "206-543-6420",
      "latitude": null,
      "longitude": null,
      "source": "NPPES"
    },
    {
      "npi": "1023256237",
      "name": "BENJAMIN EDWARD ATKINSON, M.D.",
      "credentials": "M.D.",
      "specialty": "Neurology",
      "is_vascular_neurology": false,
      "organization": "",
      "address": "101 W 8TH AVE",
      "city": "SPOKANE",
      "state": "WA",
      "zip": "992042307",
      "phone": "509-474-2894",
      "latitude": null,
      "longitude": null,
      "source": "NPPES"
    },
    {
      "npi": "1447370168",
      "name": "MARIE ATKINSON, M.D.",
      "credentials": "M.D.",
      "specialty": "Neurology",
      "is_vascular_neurology": false,
      "organization": "",
      "address": "105 W 8TH AVE SUITE 318C",
      "city": "SPOKANE",
      "state": "WA",
      "zip": "992042302",
      "phone": "509-474-6650",
      "latitude": null,
      "longitude": null,
      "source": "NPPES"
    },
    {
      "npi": "1174143887",
      "name": "",
      "credentials": "",
      "specialty": "Neurology",
      "is_vascular_neurology": false,
      "organization": "AUBURN NEUROLOGICAL INSTITUTE, P.C.",
      "address": "914 D ST NE STE 103",
      "city": "AUBURN",
      "state": "WA",
      "zip": "980024163",
      "phone": "253-333-1637",
      "latitude": null,
      "longitude": null,
      "source": "NPPES"
    },
    {
      "npi": "1316971880",
      "name": "AFTAB A AWAN, MD",
      "credentials": "MD",
      "specialty": "Neurology",
      "is_vascular_neurology": false,
      "organization": "",
      "address": "1615 DELAWARE ST",
      "city": "LONGVIEW",
      "state": "WA",
      "zip": "986322367",
      "phone": "360-414-2730",
      "latitude": null,
      "longitude": null,
      "source": "NPPES"
    },
    {
      "npi": "1326381500",
      "name": "JILL KASPAR BAIRD, M.D.",
      "credentials": "M.D.",
      "specialty": "Neurology",
      "is_vascular_neurology": false,
      "organization": "",
      "address": "2121 NE 139TH ST STE 205",
      "city": "VANCOUVER",
      "state": "WA",
      "zip": "986862316",
      "phone": "360-487-4707",
      "latitude": null,
      "longitude": null,
      "source": "NPPES"
    },
    {
      "npi": "1174586234",
      "name": "GRETCHEN ELIZABETH BAKER-BOLD, MPT",
      "credentials": "MPT",
      "specialty": "Neurology",
      "is_vascular_neurology": false,
      "organization": "",
      "address": "2320 RUCKER AVE STE 100",
      "city": "EVERETT",
      "state": "WA",
      "zip": "982012879",
      "phone": "425-268-0412",
      "latitude": null,
      "longitude": null,
      "source": "NPPES"
    },
    {
      "npi": "1508050071",
      "name": "PHILLIP AULT BALLARD, MD",
      "credentials": "MD",
      "specialty": "Neurology",
      "is_vascular_neurology": false,
      "organization": "",
      "address": "1229 MADISON SUITE #820",
      "city": "SEATTLE",
      "state": "WA",
      "zip": "981043539",
      "phone": "206-498-8766",
      "latitude": null,
      "longitude": null,
      "source": "NPPES"
    },
    {
      "npi": "1952863292",
      "name": "ELIZABETH C BALLINGER",
      "credentials": "",
      "specialty": "Neurology",
      "is_vascular_neurology": false,
      "organization": "",
      "address": "1959 NE PACIFIC ST",
      "city": "SEATTLE",
      "state": "WA",
      "zip": "981950001",
      "phone": "206-520-5000",
      "latitude": null,
      "longitude": null,
      "source": "NPPES"
    },
    {
      "npi": "1750502522",
      "name": "DAVID J BARRY, ND, DC",
      "credentials": "ND, DC",
      "specialty": "Neurology",
      "is_vascular_neurology": false,
      "organization": "",
      "address": "433 STATE ST S SUITE 6",
      "city": "KIRKLAND",
      "state": "WA",
      "zip": "980336615",
      "phone": "425-891-1581",
      "latitude": null,
      "longitude": null,
      "source": "NPPES"
    },
    {
      "npi": "1033239041",
      "name": "JAMES FREDERICK BARTSCHER, M.D.",
      "credentials": "M.D.",
      "specialty": "Neurology",
      "is_vascular_neurology": false,
      "organization": "",
      "address": "21601 76TH AVE W",
      "city": "EDMONDS",
      "state": "WA",
      "zip": "980267507",
      "phone": "206-215-2520",
      "latitude": null,
      "longitude": null,
      "source": "NPPES"
    },
    {
      "npi": "1689691370",
      "name": "SARICE L BASSIN, M.D.",
      "credentials": "M.D.",
      "specialty": "Neurology",
      "is_vascular_neurology": false,
      "organization": "",
      "address": "505 NE 87TH AVE BLDG A, SUITE 460",
      "city": "VANCOUVER",
      "state": "WA",
      "zip": "986641989",
      "phone": "360-514-7771",
      "latitude": null,
      "longitude": null,
      "source": "NPPES"
    },
    {
      "npi": "1932632262",
      "name": "IAN R BASTIAN, MD",
      "credentials": "MD",
      "specialty": "Neurology",
      "is_vascular_neurology": false,
      "organization": "",
      "address": "2817 ROCK MERRITT AVE",
      "city": "FORT LIBERTY",
      "state": "WA",
      "zip": "283100001",
      "phone": "910-907-8460",
      "latitude": null,
      "longitude": null,
      "source": "NPPES"
    },
    {
      "npi": "1508074535",
      "name": "LAUREL I BECK, PT",
      "credentials": "PT",
      "specialty": "Neurology",
      "is_vascular_neurology": false,
      "organization": "",
      "address": "1100 9TH AVE",
      "city": "SEATTLE",
      "state": "WA",
      "zip": "981012756",
      "phone": "206-223-6746",
      "latitude": null,
      "longitude": null,
      "source": "NPPES"
    },
    {
      "npi": "1558981225",
      "name": "ASHLEY SAVAGE BECKER, MD",
      "credentials": "MD",
      "specialty": "Neurology",
      "is_vascular_neurology": false,
      "organization": "",
      "address": "1201 S MILLER ST",
      "city": "WENATCHEE",
      "state": "WA",
      "zip": "988013201",
      "phone": "509-662-1511",
      "latitude": null,
      "longitude": null,
      "source": "NPPES"
    },
    {
      "npi": "1902985666",
      "name": "KYRA J BECKER",
      "credentials": "",
      "specialty": "Neurology",
      "is_vascular_neurology": false,
      "organization": "",
      "address": "HARBORVIEW MEDICAL CENTER 325 9TH AVE",
      "city": "SEATTLE",
      "state": "WA",
      "zip": "98104",
      "phone": "206-731-3992",
      "latitude": 47.6043048,
      "longitude": -122.3240717,
      "source": "NPPES"
    },
    {
      "npi": "1457883852",
      "name": "KATE ONORATO BEDRIN, M.D.",
      "credentials": "M.D.",
      "specialty": "Neurology",
      "is_vascular_neurology": false,
      "organization": "",
      "address": "33501 1ST WAY S",
      "city": "FEDERAL WAY",
      "state": "WA",
      "zip": "980036208",
      "phone": "206-341-1900",
      "latitude": null,
      "longitude": null,
      "source": "NPPES"
    },
    {
      "npi": "1497715098",
      "name": "JAMES BRUCE BELL, M.D.",
      "credentials": "M.D.",
      "specialty": "Neurology",
      "is_vascular_neurology": false,
      "organization": "",
      "address": "505 NE 87TH AVE STE. 460",
      "city": "VANCOUVER",
      "state": "WA",
      "zip": "986641989",
      "phone": "360-256-8865",
      "latitude": null,
      "longitude": null,
      "source": "NPPES"
    },
    {
      "npi": "1659721785",
      "name": "",
      "credentials": "",
      "specialty": "Neurology",
      "is_vascular_neurology": false,
      "organization": "BELLEVUE NEUROLOGY AND NEUROSCIENCE PLLC",
      "address": "14100 SE 36TH ST STE 106",
      "city": "BELLEVUE",
      "state": "WA",
      "zip": "980061657",
      "phone": "425-786-0080",
      "latitude": null,
      "longitude": null,
      "source": "NPPES"
    },
    {
      "npi": "1013250216",
      "name": "ABDELRAHMAN FOUAD AHMED BELTAGY, M.D.",
      "credentials": "M.D.",
      "specialty": "Neurology",
      "is_vascular_neurology": false,
      "organization": "",
      "address": "101 W 8TH AVE",
      "city": "SPOKANE",
      "state": "WA",
      "zip": "992042307",
      "phone": "509-474-2894",
      "latitude": null,
      "longitude": null,
      "source": "NPPES"
    },
    {
      "npi": "1689794778",
      "name": "",
      "credentials": "",
      "specialty": "Neurology",
      "is_vascular_neurology": false,
      "organization": "BENDER AND WURST PC",
      "address": "105 W 8TH AVE #560",
      "city": "SPOKANE",
      "state": "WA",
      "zip": "992042302",
      "phone": "509-456-7200",
      "latitude": null,
      "longitude": null,
      "source": "NPPES"
    },
    {
      "npi": "1588736979",
      "name": "WILLIAM IRA BENDER, MD",
      "credentials": "MD",
      "specialty": "Neurology",
      "is_vascular_neurology": false,
      "organization": "",
      "address": "546 N JEFFERSON LN STE 200",
      "city": "SPOKANE",
      "state": "WA",
      "zip": "992017104",
      "phone": "509-625-3700",
      "latitude": null,
      "longitude": null,
      "source": "NPPES"
    },
    {
      "npi": "1952661944",
      "name": "GIULIA MARIAN BENEDETTI, MD",
      "credentials": "MD",
      "specialty": "Neurology",
      "is_vascular_neurology": false,
      "organization": "",
      "address": "1500 E MEDICAL CENTER DR",
      "city": "ANN ARBOR",
      "state": "WA",
      "zip": "481095000",
      "phone": "734-936-4000",
      "latitude": null,
      "longitude": null,
      "source": "NPPES"
    },
    {
      "npi": "1568461507",
      "name": "WILLIAM E BERG, M.D.",
      "credentials": "M.D.",
      "specialty": "Neurology",
      "is_vascular_neurology": false,
      "organization": "",
      "address": "515 MINOR AVE #210",
      "city": "SEATTLE",
      "state": "WA",
      "zip": "98104",
      "phone": "206-386-9500",
      "latitude": 47.6038321,
      "longitude": -122.330062,
      "source": "NPPES"
    },
    {
      "npi": "1497791685",
      "name": "ROBERT L BERGMAN, MD",
      "credentials": "MD",
      "specialty": "Neurology",
      "is_vascular_neurology": false,
      "organization": "",
      "address": "2271 NE 51ST ST",
      "city": "SEATTLE",
      "state": "WA",
      "zip": "981055713",
      "phone": "206-522-8553",
      "latitude": null,
      "longitude": null,
      "source": "NPPES"
    },
    {
      "npi": "1083692743",
      "name": "CHARLES BENJAMIN BERNICK, M.D.",
      "credentials": "M.D.",
      "specialty": "Neurology",
      "is_vascular_neurology": false,
      "organization": "",
      "address": "888 W BONNEVILLE AVE",
      "city": "LAS VEGAS",
      "state": "WA",
      "zip": "891060100",
      "phone": "702-483-6000",
      "latitude": null,
      "longitude": null,
      "source": "NPPES"
    },
    {
      "npi": "1013438902",
      "name": "AAKRITI BERTSCHE",
      "credentials": "",
      "specialty": "Neurology",
      "is_vascular_neurology": false,
      "organization": "",
      "address": "601 W SPRUCE ST STE J",
      "city": "MISSOULA",
      "state": "WA",
      "zip": "598024047",
      "phone": "406-327-3350",
      "latitude": null,
      "longitude": null,
      "source": "NPPES"
    },
    {
      "npi": "1134532039",
      "name": "AMIR BESHARAT, DO",
      "credentials": "DO",
      "specialty": "Neurology",
      "is_vascular_neurology": false,
      "organization": "",
      "address": "550 17TH AVE STE 540",
      "city": "SEATTLE",
      "state": "WA",
      "zip": "981224470",
      "phone": "206-386-3880",
      "latitude": null,
      "longitude": null,
      "source": "NPPES"
    },
    {
      "npi": "1578097101",
      "name": "SARGON BET-SHLIMON, M.D.",
      "credentials": "M.D.",
      "specialty": "Neurology",
      "is_vascular_neurology": false,
      "organization": "",
      "address": "400 S 43RD ST",
      "city": "RENTON",
      "state": "WA",
      "zip": "980555714",
      "phone": "425-690-3585",
      "latitude": null,
      "longitude": null,
      "source": "NPPES"
    },
    {
      "npi": "1689339087",
      "name": "",
      "credentials": "",
      "specialty": "Neurology",
      "is_vascular_neurology": false,
      "organization": "BETTERSTEP PHYSICAL THERAPY",
      "address": "19340 142ND PL SE",
      "city": "RENTON",
      "state": "WA",
      "zip": "980589446",
      "phone": "775-671-5159",
      "latitude": null,
      "longitude": null,
      "source": "NPPES"
    },
    {
      "npi": "1699003871",
      "name": "ROOPA BHAT, M.D.",
      "credentials": "M.D.",
      "specialty": "Neurology",
      "is_vascular_neurology": false,
      "organization": "",
      "address": "14100 SE 36TH ST STE 106",
      "city": "BELLEVUE",
      "state": "WA",
      "zip": "980061657",
      "phone": "425-786-0080",
      "latitude": null,
      "longitude": null,
      "source": "NPPES"
    },
    {
      "npi": "1174186837",
      "name": "ZEINAB BIRJANDIAN, MD",
      "credentials": "MD",
      "specialty": "Neurology",
      "is_vascular_neurology": false,
      "organization": "",
      "address": "UNIVERSITY OF WASHINGTON",
      "city": "SEATTLE",
      "state": "WA",
      "zip": "981950001",
      "phone": "425-274-6077",
      "latitude": null,
      "longitude": null,
      "source": "NPPES"
    },
    {
      "npi": "1770575656",
      "name": "CHRISTOPHER JON BIXLER, MD",
      "credentials": "MD",
      "specialty": "Neurology",
      "is_vascular_neurology": false,
      "organization": "",
      "address": "11215 METRO PKWY STE 1",
      "city": "FORT MYERS",
      "state": "WA",
      "zip": "339661206",
      "phone": "239-208-2212",
      "latitude": null,
      "longitude": null,
      "source": "NPPES"
    },
    {
      "npi": "1265434112",
      "name": "RANDALL J BJORK, M.D.",
      "credentials": "M.D.",
      "specialty": "Neurology",
      "is_vascular_neurology": false,
      "organization": "",
      "address": "611 E DOUGLAS RD STE 305",
      "city": "MISHAWAKA",
      "state": "WA",
      "zip": "465451467",
      "phone": "574-335-6450",
      "latitude": null,
      "longitude": null,
      "source": "NPPES"
    },
    {
      "npi": "1992120828",
      "name": "MATTHEW RUSSELL BLATTNER, MD",
      "credentials": "MD",
      "specialty": "Neurology",
      "is_vascular_neurology": false,
      "organization": "",
      "address": "FIRST FLOOR MEDICAL MALL 9040 JACKSON AVE",
      "city": "JOINT BASE LEWIS MCCHORD",
      "state": "WA",
      "zip": "984310001",
      "phone": "253-968-1440",
      "latitude": null,
      "longitude": null,
      "source": "NPPES"
    },
    {
      "npi": "1326444399",
      "name": "BRADLEY JOSEPH BODLE, D.C.",
      "credentials": "D.C.",
      "specialty": "Neurology",
      "is_vascular_neurology": false,
      "organization": "",
      "address": "22312 MARINE VIEW DR S",
      "city": "DES MOINES",
      "state": "WA",
      "zip": "981986832",
      "phone": "206-824-8464",
      "latitude": null,
      "longitude": null,
      "source": "NPPES"
    },
    {
      "npi": "1174596415",
      "name": "JODIE LYNN BOLT, MD",
      "credentials": "MD",
      "specialty": "Neurology",
      "is_vascular_neurology": false,
      "organization": "",
      "address": "9040 JACKSON AVE MADIGAN ARMY MEDICAL CENTER",
      "city": "TACOMA",
      "state": "WA",
      "zip": "984311100",
      "phone": "253-968-1440",
      "latitude": null,
      "longitude": null,
      "source": "NPPES"
    },
    {
      "npi": "1699137570",
      "name": "ALIPI VESSELINOV NAYDENOV BONM, MD PHD",
      "credentials": "MD PHD",
      "specialty": "Neurology",
      "is_vascular_neurology": false,
      "organization": "",
      "address": "550 17TH AVE STE 540",
      "city": "SEATTLE",
      "state": "WA",
      "zip": "981224470",
      "phone": "206-320-2300",
      "latitude": null,
      "longitude": null,
      "source": "NPPES"
    },
    {
      "npi": "1093775371",
      "name": "DUNCAN BORLAND, D.O.",
      "credentials": "D.O.",
      "specialty": "Neurology",
      "is_vascular_neurology": false,
      "organization": "",
      "address": "505 NE 87TH AVE STE. 460",
      "city": "VANCOUVER",
      "state": "WA",
      "zip": "986641989",
      "phone": "360-256-8865",
      "latitude": null,
      "longitude": null,
      "source": "NPPES"
    },
    {
      "npi": "1164503413",
      "name": "ANTHONY A BOULDIN, MD",
      "credentials": "MD",
      "specialty": "Neurology",
      "is_vascular_neurology": false,
      "organization": "",
      "address": "600 BROADWAY STE 400",
      "city": "SEATTLE",
      "state": "WA",
      "zip": "981225312",
      "phone": "206-215-1440",
      "latitude": null,
      "longitude": null,
      "source": "NPPES"
    },
    {
      "npi": "1548423411",
      "name": "XIUHUA L BOZARTH, MD",
      "credentials": "MD",
      "specialty": "Neurology",
      "is_vascular_neurology": false,
      "organization": "",
      "address": "4800 SAND POINT WAY NE",
      "city": "SEATTLE",
      "state": "WA",
      "zip": "981053901",
      "phone": "425-326-0261",
      "latitude": null,
      "longitude": null,
      "source": "NPPES"
    },
    {
      "npi": "1013299478",
      "name": "MICHAEL THOMAS BRENEMAN, D.C.",
      "credentials": "D.C.",
      "specialty": "Neurology",
      "is_vascular_neurology": false,
      "organization": "",
      "address": "18619 HERON CT 18619 HERON CT",
      "city": "ARLINGTON",
      "state": "WA",
      "zip": "982235924",
      "phone": "360-913-3116",
      "latitude": null,
      "longitude": null,
      "source": "NPPES"
    },
    {
      "npi": "1124072475",
      "name": "DAVID ALBERT BRENNER, MD",
      "credentials": "MD",
      "specialty": "Neurology",
      "is_vascular_neurology": false,
      "organization": "",
      "address": "1 MEDICAL PARK BLVD",
      "city": "BRISTOL",
      "state": "WA",
      "zip": "376207430",
      "phone": "423-844-1121",
      "latitude": null,
      "longitude": null,
      "source": "NPPES"
    },
    {
      "npi": "1215998125",
      "name": "PATTI JO BRETTELL, M.D.",
      "credentials": "M.D.",
      "specialty": "Neurology",
      "is_vascular_neurology": false,
      "organization": "",
      "address": "1400 E KINCAID ST",
      "city": "MOUNT VERNON",
      "state": "WA",
      "zip": "982744127",
      "phone": "336-042-8259",
      "latitude": null,
      "longitude": null,
      "source": "NPPES"
    },
    {
      "npi": "1366441040",
      "name": "DONALD ATTRIDGE BRIGHT, M.D.",
      "credentials": "M.D.",
      "specialty": "Neurology",
      "is_vascular_neurology": false,
      "organization": "",
      "address": "2720 CLARE AVE SUITE C",
      "city": "BREMERTON",
      "state": "WA",
      "zip": "983103374",
      "phone": "360-377-9079",
      "latitude": null,
      "longitude": null,
      "source": "NPPES"
    },
    {
      "npi": "1770529786",
      "name": "CHARLES E BRONDOS, M.D.",
      "credentials": "M.D.",
      "specialty": "Neurology",
      "is_vascular_neurology": false,
      "organization": "",
      "address": "715 S COWLEY ST SUITE 224",
      "city": "SPOKANE",
      "state": "WA",
      "zip": "992021375",
      "phone": "509-624-9154",
      "latitude": null,
      "longitude": null,
      "source": "NPPES"
    },
    {
      "npi": "1992971667",
      "name": "CRAIG BROOKER, M.D.",
      "credentials": "M.D.",
      "specialty": "Neurology",
      "is_vascular_neurology": false,
      "organization": "",
      "address": "4033 TALBOT RD S STE 520",
      "city": "RENTON",
      "state": "WA",
      "zip": "980555774",
      "phone": "425-690-3586",
      "latitude": null,
      "longitude": null,
      "source": "NPPES"
    },
    {
      "npi": "1629360144",
      "name": "CHRISTOPHER PATRICK BROWN, M.D.",
      "credentials": "M.D.",
      "specialty": "Neurology",
      "is_vascular_neurology": false,
      "organization": "",
      "address": "101 W 8TH AVE STE 4200",
      "city": "SPOKANE",
      "state": "WA",
      "zip": "992042307",
      "phone": "509-474-5440",
      "latitude": null,
      "longitude": null,
      "source": "NPPES"
    },
    {
      "npi": "1912955063",
      "name": "DAVID L BROWN, M.D.",
      "credentials": "M.D.",
      "specialty": "Neurology",
      "is_vascular_neurology": false,
      "organization": "",
      "address": "34503 9TH AVE S STE 230",
      "city": "FEDERAL WAY",
      "state": "WA",
      "zip": "980038726",
      "phone": "253-838-3103",
      "latitude": null,
      "longitude": null,
      "source": "NPPES"
    },
    {
      "npi": "1649789637",
      "name": "NICOLE BRUN-COTTAN, DPT",
      "credentials": "DPT",
      "specialty": "Neurology",
      "is_vascular_neurology": false,
      "organization": "",
      "address": "210 W 4TH ST",
      "city": "VANCOUVER",
      "state": "WA",
      "zip": "986603493",
      "phone": "360-258-1637",
      "latitude": null,
      "longitude": null,
      "source": "NPPES"
    },
    {
      "npi": "1639294648",
      "name": "ANNE BUCHINSKI, MD",
      "credentials": "MD",
      "specialty": "Neurology",
      "is_vascular_neurology": false,
      "organization": "",
      "address": "2271 NE 51ST ST",
      "city": "SEATTLE",
      "state": "WA",
      "zip": "98105",
      "phone": "206-522-8553",
      "latitude": 47.6655852,
      "longitude": -122.3027981,
      "source": "NPPES"
    },
    {
      "npi": "1548581945",
      "name": "JOSHUA HERNANDEZ BUCK, MD",
      "credentials": "MD",
      "specialty": "Neurology",
      "is_vascular_neurology": false,
      "organization": "",
      "address": "550 17TH AVE STE 400",
      "city": "SEATTLE",
      "state": "WA",
      "zip": "98122",
      "phone": "206-320-3494",
      "latitude": 47.6038321,
      "longitude": -122.330062,
      "source": "NPPES"
    },
    {
      "npi": "1578907671",
      "name": "THOMAS J BULLOCK, MD",
      "credentials": "MD",
      "specialty": "Neurology",
      "is_vascular_neurology": false,
      "organization": "",
      "address": "1135 116TH AVE NE STE 500",
      "city": "BELLEVUE",
      "state": "WA",
      "zip": "980044627",
      "phone": "801-699-8936",
      "latitude": null,
      "longitude": null,
      "source": "NPPES"
    },
    {
      "npi": "1457562621",
      "name": "EMMA RICHARDSON SCHMITT BURBANK, M.D.",
      "credentials": "M.D.",
      "specialty": "Neurology",
      "is_vascular_neurology": false,
      "organization": "",
      "address": "1100 9TH AVE",
      "city": "SEATTLE",
      "state": "WA",
      "zip": "981012756",
      "phone": "206-341-0420",
      "latitude": null,
      "longitude": null,
      "source": "NPPES"
    },
    {
      "npi": "1073750105",
      "name": "DANIEL J BURDICK, MD",
      "credentials": "MD",
      "specialty": "Neurology",
      "is_vascular_neurology": false,
      "organization": "",
      "address": "12039 NE 128TH ST SUITE 300",
      "city": "KIRKLAND",
      "state": "WA",
      "zip": "980343030",
      "phone": "425-899-3123",
      "latitude": null,
      "longitude": null,
      "source": "NPPES"
    },
    {
      "npi": "1205905262",
      "name": "DAVID W BURNS, D.C., N.D.",
      "credentials": "D.C., N.D.",
      "specialty": "Neurology",
      "is_vascular_neurology": false,
      "organization": "",
      "address": "5712 E LAKE SAMMAMISH PKWY SE STE 106 SUITE 2",
      "city": "ISSAQUAH",
      "state": "WA",
      "zip": "980298943",
      "phone": "425-518-9077",
      "latitude": null,
      "longitude": null,
      "source": "NPPES"
    },
    {
      "npi": "1043375405",
      "name": "THEODORE ELLIOT BUSHNELL, MD",
      "credentials": "MD",
      "specialty": "Neurology",
      "is_vascular_neurology": false,
      "organization": "",
      "address": "325 9TH AVE BOX 359803",
      "city": "SEATTLE",
      "state": "WA",
      "zip": "981042420",
      "phone": "206-731-4240",
      "latitude": null,
      "longitude": null,
      "source": "NPPES"
    },
    {
      "npi": "1265861223",
      "name": "JORDAN LUCIO CABRERA, DPT, NCS",
      "credentials": "DPT, NCS",
      "specialty": "Neurology",
      "is_vascular_neurology": false,
      "organization": "",
      "address": "325 9TH AVE # 359920",
      "city": "SEATTLE",
      "state": "WA",
      "zip": "981042420",
      "phone": "206-744-1675",
      "latitude": null,
      "longitude": null,
      "source": "NPPES"
    },
    {
      "npi": "1205880507",
      "name": "MAUREEN ANN CALLAGHAN, M.D.",
      "credentials": "M.D.",
      "specialty": "Neurology",
      "is_vascular_neurology": false,
      "organization": "",
      "address": "2901 BRIDGEPORT WAY W",
      "city": "UNIVERSITY PLACE",
      "state": "WA",
      "zip": "984664614",
      "phone": "253-534-7000",
      "latitude": null,
      "longitude": null,
      "source": "NPPES"
    },
    {
      "npi": "1972958593",
      "name": "NICHOLAS E CALVO, M.D.",
      "credentials": "M.D.",
      "specialty": "Neurology",
      "is_vascular_neurology": false,
      "organization": "",
      "address": "1040 NW 22ND AVE STE 420",
      "city": "PORTLAND",
      "state": "WA",
      "zip": "972103062",
      "phone": "503-413-6166",
      "latitude": null,
      "longitude": null,
      "source": "NPPES"
    },
    {
      "npi": "1902891104",
      "name": "PAULO J CANCADO, M.D.",
      "credentials": "M.D.",
      "specialty": "Neurology",
      "is_vascular_neurology": false,
      "organization": "",
      "address": "216 W 10TH AVE SUITE 304",
      "city": "KENNEWICK",
      "state": "WA",
      "zip": "993366300",
      "phone": "509-585-5972",
      "latitude": null,
      "longitude": null,
      "source": "NPPES"
    },
    {
      "npi": "1164957452",
      "name": "AGNELIO SILVERIO CARDENTEY, M.D.",
      "credentials": "M.D.",
      "specialty": "Neurology",
      "is_vascular_neurology": false,
      "organization": "",
      "address": "11215 METRO PKWY STE 1",
      "city": "FORT MYERS",
      "state": "WA",
      "zip": "339661206",
      "phone": "239-208-2212",
      "latitude": null,
      "longitude": null,
      "source": "NPPES"
    },
    {
      "npi": "1023472115",
      "name": "RACHEL ELIZABETH CARLIN, MD",
      "credentials": "MD",
      "specialty": "Neurology",
      "is_vascular_neurology": false,
      "organization": "",
      "address": "11215 METRO PKWY STE 100",
      "city": "FORT MYERS",
      "state": "WA",
      "zip": "339661206",
      "phone": "239-208-2212",
      "latitude": null,
      "longitude": null,
      "source": "NPPES"
    },
    {
      "npi": "1093109381",
      "name": "NICOLA CARLISLE",
      "credentials": "",
      "specialty": "Neurology",
      "is_vascular_neurology": false,
      "organization": "",
      "address": "3901 HOYT AVE",
      "city": "EVERETT",
      "state": "WA",
      "zip": "982014918",
      "phone": "425-339-5408",
      "latitude": null,
      "longitude": null,
      "source": "NPPES"
    },
    {
      "npi": "1659373116",
      "name": "SCOTT CARLSON, MD",
      "credentials": "MD",
      "specialty": "Neurology",
      "is_vascular_neurology": false,
      "organization": "",
      "address": "400 E 5TH AVE",
      "city": "SPOKANE",
      "state": "WA",
      "zip": "992021334",
      "phone": "509-838-2531",
      "latitude": null,
      "longitude": null,
      "source": "NPPES"
    },
    {
      "npi": "1972601011",
      "name": "RICHARD CARTER, MD",
      "credentials": "MD",
      "specialty": "Neurology",
      "is_vascular_neurology": false,
      "organization": "",
      "address": "2271 NE 51ST ST",
      "city": "SEATTLE",
      "state": "WA",
      "zip": "98105",
      "phone": "206-522-8553",
      "latitude": 47.6655852,
      "longitude": -122.3027981,
      "source": "NPPES"
    },
    {
      "npi": "1730477217",
      "name": "",
      "credentials": "",
      "specialty": "Neurology",
      "is_vascular_neurology": false,
      "organization": "CASCADE DIZZINESS AND BALANCE PHYSICAL THERAPY, LLC",
      "address": "4828 CALIFORNIA AVE SW",
      "city": "SEATTLE",
      "state": "WA",
      "zip": "981164415",
      "phone": "206-925-3762",
      "latitude": null,
      "longitude": null,
      "source": "NPPES"
    },
    {
      "npi": "1952807406",
      "name": "MICHAELA ANNE CASTELLO, MD, PhD",
      "credentials": "MD, PhD",
      "specialty": "Neurology",
      "is_vascular_neurology": false,
      "organization": "",
      "address": "1959 NE PACIFIC ST",
      "city": "SEATTLE",
      "state": "WA",
      "zip": "981950001",
      "phone": "206-520-5000",
      "latitude": null,
      "longitude": null,
      "source": "NPPES"
    },
    {
      "npi": "1659757359",
      "name": "CARLOS CASTILLO PINTO, MD",
      "credentials": "MD",
      "specialty": "Neurology",
      "is_vascular_neurology": false,
      "organization": "",
      "address": "825 EASTLAKE AVE E",
      "city": "SEATTLE",
      "state": "WA",
      "zip": "981094405",
      "phone": "206-520-5000",
      "latitude": null,
      "longitude": null,
      "source": "NPPES"
    },
    {
      "npi": "1124108048",
      "name": "LISA M. CAYLOR, MD",
      "credentials": "MD",
      "specialty": "Neurology",
      "is_vascular_neurology": false,
      "organization": "",
      "address": "550 17TH AVE FIFTH FLOOR",
      "city": "SEATTLE",
      "state": "WA",
      "zip": "981225788",
      "phone": "206-386-3880",
      "latitude": null,
      "longitude": null,
      "source": "NPPES"
    },
    {
      "npi": "1528851383",
      "name": "",
      "credentials": "",
      "specialty": "Neurology",
      "is_vascular_neurology": false,
      "organization": "CCM SPECIALTY CARE LLC",
      "address": "710 S 348TH ST STE B",
      "city": "FEDERAL WAY",
      "state": "WA",
      "zip": "980037042",
      "phone": "253-878-5193",
      "latitude": null,
      "longitude": null,
      "source": "NPPES"
    },
    {
      "npi": "1598778458",
      "name": "JEBIN MATHEW CHACKO, MD",
      "credentials": "MD",
      "specialty": "Neurology",
      "is_vascular_neurology": false,
      "organization": "",
      "address": "1701 3RD ST SE",
      "city": "PUYALLUP",
      "state": "WA",
      "zip": "983724511",
      "phone": "253-697-4747",
      "latitude": null,
      "longitude": null,
      "source": "NPPES"
    },
    {
      "npi": "1871810796",
      "name": "KATHARINE RINGER CHAGNON, DPT",
      "credentials": "DPT",
      "specialty": "Neurology",
      "is_vascular_neurology": false,
      "organization": "",
      "address": "325 9TH AVE",
      "city": "SEATTLE",
      "state": "WA",
      "zip": "981042420",
      "phone": "206-744-3188",
      "latitude": null,
      "longitude": null,
      "source": "NPPES"
    },
    {
      "npi": "1225069511",
      "name": "MARC CHAMBERLAIN, MD",
      "credentials": "MD",
      "specialty": "Neurology",
      "is_vascular_neurology": false,
      "organization": "",
      "address": "SEATTLE CANCER CARE ALLIANCE 825 EASTLAKE AVE E MS G-6800 POB 19023",
      "city": "SEATTLE",
      "state": "WA",
      "zip": "98109",
      "phone": "813-362-4370",
      "latitude": 47.6038321,
      "longitude": -122.330062,
      "source": "NPPES"
    },
    {
      "npi": "1265451538",
      "name": "CARRIE A CHAMBERS, PT",
      "credentials": "PT",
      "specialty": "Neurology",
      "is_vascular_neurology": false,
      "organization": "",
      "address": "6632 SW LUANA BEACH RD",
      "city": "VASHON",
      "state": "WA",
      "zip": "980707222",
      "phone": "206-459-7724",
      "latitude": null,
      "longitude": null,
      "source": "NPPES"
    },
    {
      "npi": "1740675669",
      "name": "JEREMY HO MUN CHAN",
      "credentials": "",
      "specialty": "Neurology",
      "is_vascular_neurology": false,
      "organization": "",
      "address": "4800 SAND POINT WAY NE OC.7.830",
      "city": "SEATTLE",
      "state": "WA",
      "zip": "98105",
      "phone": "206-987-2525",
      "latitude": 47.6038321,
      "longitude": -122.330062,
      "source": "NPPES"
    },
    {
      "npi": "1679035216",
      "name": "ROGER CHRISTOPHER CHANG, MD, PhD",
      "credentials": "MD, PhD",
      "specialty": "Neurology",
      "is_vascular_neurology": false,
      "organization": "",
      "address": "300 PASTEUR DR",
      "city": "PALO ALTO",
      "state": "WA",
      "zip": "943042203",
      "phone": "650-723-4000",
      "latitude": null,
      "longitude": null,
      "source": "NPPES"
    },
    {
      "npi": "1245246990",
      "name": "JOHN EDWARD CHAPIN, M.D.",
      "credentials": "M.D.",
      "specialty": "Neurology",
      "is_vascular_neurology": false,
      "organization": "",
      "address": "105 W 8TH AVE STE 318C",
      "city": "SPOKANE",
      "state": "WA",
      "zip": "992042318",
      "phone": "509-474-6650",
      "latitude": null,
      "longitude": null,
      "source": "NPPES"
    },
    {
      "npi": "1215385653",
      "name": "PERVEEN CHATTHA, M.D.",
      "credentials": "M.D.",
      "specialty": "Neurology",
      "is_vascular_neurology": false,
      "organization": "",
      "address": "1250 WATERS PL",
      "city": "BRONX",
      "state": "WA",
      "zip": "104612720",
      "phone": "929-263-3866",
      "latitude": null,
      "longitude": null,
      "source": "NPPES"
    },
    {
      "npi": "1710731542",
      "name": "AMER CHAUDHRY",
      "credentials": "",
      "specialty": "Neurology",
      "is_vascular_neurology": false,
      "organization": "",
      "address": "1959 NE PACIFIC ST",
      "city": "SEATTLE",
      "state": "WA",
      "zip": "981950001",
      "phone": "907-342-9917",
      "latitude": null,
      "longitude": null,
      "source": "NPPES"
    },
    {
      "npi": "1255750154",
      "name": "MARIA OLGA CHAVEZ-KEATTS, M.D.",
      "credentials": "M.D.",
      "specialty": "Neurology",
      "is_vascular_neurology": false,
      "organization": "",
      "address": "1550 N 115TH ST APT 610",
      "city": "SEATTLE",
      "state": "WA",
      "zip": "981338401",
      "phone": "206-520-5000",
      "latitude": null,
      "longitude": null,
      "source": "NPPES"
    },
    {
      "npi": "1992334585",
      "name": "MICHELLE H CHEE, MD",
      "credentials": "MD",
      "specialty": "Neurology",
      "is_vascular_neurology": false,
      "organization": "",
      "address": "1550 N 115TH ST",
      "city": "SEATTLE",
      "state": "WA",
      "zip": "981338401",
      "phone": "206-520-5000",
      "latitude": null,
      "longitude": null,
      "source": "NPPES"
    },
    {
      "npi": "1437504784",
      "name": "DENISE FAY CHEN, MD",
      "credentials": "MD",
      "specialty": "Neurology",
      "is_vascular_neurology": false,
      "organization": "",
      "address": "325 9TH AVE",
      "city": "SEATTLE",
      "state": "WA",
      "zip": "981042420",
      "phone": "206-520-5000",
      "latitude": null,
      "longitude": null,
      "source": "NPPES"
    },
    {
      "npi": "1942733092",
      "name": "JOYCE CHEN",
      "credentials": "",
      "specialty": "Neurology",
      "is_vascular_neurology": false,
      "organization": "",
      "address": "801 W 5TH AVE STE 323",
      "city": "SPOKANE",
      "state": "WA",
      "zip": "992042800",
      "phone": "509-342-3200",
      "latitude": null,
      "longitude": null,
      "source": "NPPES"
    },
    {
      "npi": "1558757757",
      "name": "MICHAEL MENG CHEN, MD, MS",
      "credentials": "MD, MS",
      "specialty": "Neurology",
      "is_vascular_neurology": false,
      "organization": "",
      "address": "550 17TH AVE",
      "city": "SEATTLE",
      "state": "WA",
      "zip": "981225788",
      "phone": "206-320-2800",
      "latitude": null,
      "longitude": null,
      "source": "NPPES"
    },
    {
      "npi": "1982815676",
      "name": "SOPHIA HUANG SHAO CHENG, M.D.",
      "credentials": "M.D.",
      "specialty": "Neurology",
      "is_vascular_neurology": false,
      "organization": "",
      "address": "1940 116TH AVE NE STE 200",
      "city": "BELLEVUE",
      "state": "WA",
      "zip": "980043074",
      "phone": "206-486-2926",
      "latitude": null,
      "longitude": null,
      "source": "NPPES"
    },
    {
      "npi": "1124240254",
      "name": "ANDREA CHENG-HAKIMIAN, MD",
      "credentials": "MD",
      "specialty": "Neurology",
      "is_vascular_neurology": false,
      "organization": "",
      "address": "1959 NE PACIFIC ST",
      "city": "SEATTLE",
      "state": "WA",
      "zip": "981950001",
      "phone": "206-598-5068",
      "latitude": null,
      "longitude": null,
      "source": "NPPES"
    },
    {
      "npi": "1811457468",
      "name": "VIVIAN CHIANG, MD",
      "credentials": "MD",
      "specialty": "Neurology",
      "is_vascular_neurology": false,
      "organization": "",
      "address": "1112 6TH AVE STE 100",
      "city": "TACOMA",
      "state": "WA",
      "zip": "984054048",
      "phone": "253-792-6630",
      "latitude": null,
      "longitude": null,
      "source": "NPPES"
    },
    {
      "npi": "1992292122",
      "name": "JOSEPH CHIARO, DO",
      "credentials": "DO",
      "specialty": "Neurology",
      "is_vascular_neurology": false,
      "organization": "",
      "address": "317 MARTIN LUTHER KING JR WAY",
      "city": "TACOMA",
      "state": "WA",
      "zip": "984054234",
      "phone": "253-403-1400",
      "latitude": null,
      "longitude": null,
      "source": "NPPES"
    },
    {
      "npi": "1174602213",
      "name": "JAI HEE CHO, MD",
      "credentials": "MD",
      "specialty": "Neurology",
      "is_vascular_neurology": false,
      "organization": "",
      "address": "710 LAWRENCE EXPY",
      "city": "SANTA CLARA",
      "state": "WA",
      "zip": "950515173",
      "phone": "408-851-1000",
      "latitude": null,
      "longitude": null,
      "source": "NPPES"
    },
    {
      "npi": "1588850325",
      "name": "YOUNGBIN CHOI, M.D.",
      "credentials": "M.D.",
      "specialty": "Neurology",
      "is_vascular_neurology": false,
      "organization": "",
      "address": "525 LILLY RD NE STE 210",
      "city": "OLYMPIA",
      "state": "WA",
      "zip": "985065101",
      "phone": "360-413-8550",
      "latitude": null,
      "longitude": null,
      "source": "NPPES"
    },
    {
      "npi": "1265457097",
      "name": "MICHELLE LYNN CHOPRA, PT",
      "credentials": "PT",
      "specialty": "Neurology",
      "is_vascular_neurology": false,
      "organization": "",
      "address": "311 S L ST",
      "city": "TACOMA",
      "state": "WA",
      "zip": "984053720",
      "phone": "253-410-3370",
      "latitude": null,
      "longitude": null,
      "source": "NPPES"
    },
    {
      "npi": "1164872651",
      "name": "CHRIS ALISON CHOU, M.D.",
      "credentials": "M.D.",
      "specialty": "Neurology",
      "is_vascular_neurology": false,
      "organization": "",
      "address": "11521 NE 128TH ST, STE 130, MS-12",
      "city": "KIRKLAND",
      "state": "WA",
      "zip": "980344317",
      "phone": "425-899-4280",
      "latitude": null,
      "longitude": null,
      "source": "NPPES"
    },
    {
      "npi": "1689679714",
      "name": "TSZ-MING CHOW, MD",
      "credentials": "MD",
      "specialty": "Neurology",
      "is_vascular_neurology": false,
      "organization": "",
      "address": "1615 DELAWARE ST",
      "city": "LONGVIEW",
      "state": "WA",
      "zip": "986322367",
      "phone": "360-414-2730",
      "latitude": null,
      "longitude": null,
      "source": "NPPES"
    },
    {
      "npi": "1225055023",
      "name": "ARIF A CHOWDHURY, MD",
      "credentials": "MD",
      "specialty": "Neurology",
      "is_vascular_neurology": false,
      "organization": "",
      "address": "34503 9TH AVE S STE 230",
      "city": "FEDERAL WAY",
      "state": "WA",
      "zip": "980038726",
      "phone": "253-838-3103",
      "latitude": null,
      "longitude": null,
      "source": "NPPES"
    },
    {
      "npi": "1972230068",
      "name": "DENNIS LABAYO CHUA, PT, DPT",
      "credentials": "PT, DPT",
      "specialty": "Neurology",
      "is_vascular_neurology": false,
      "organization": "",
      "address": "400 S 43RD ST # 50010",
      "city": "RENTON",
      "state": "WA",
      "zip": "980555714",
      "phone": "425-690-3650",
      "latitude": null,
      "longitude": null,
      "source": "NPPES"
    },
    {
      "npi": "1366445702",
      "name": "JOSELEETO CHUA, M.D. ",
      "credentials": "M.D. ",
      "specialty": "Neurology",
      "is_vascular_neurology": false,
      "organization": "",
      "address": "400 E 5TH AVE",
      "city": "SPOKANE",
      "state": "WA",
      "zip": "992021334",
      "phone": "509-838-2531",
      "latitude": null,
      "longitude": null,
      "source": "NPPES"
    },
    {
      "npi": "1154770592",
      "name": "DENNIS YI-LUN CHUANG, M.D., Ph.D.",
      "credentials": "M.D., Ph.D.",
      "specialty": "Neurology",
      "is_vascular_neurology": false,
      "organization": "",
      "address": "1701 3RD ST SE STE 201",
      "city": "PUYALLUP",
      "state": "WA",
      "zip": "983724511",
      "phone": "253-697-4747",
      "latitude": null,
      "longitude": null,
      "source": "NPPES"
    },
    {
      "npi": "1366558751",
      "name": "ROSALIND S CHUANG, M.D.",
      "credentials": "M.D.",
      "specialty": "Neurology",
      "is_vascular_neurology": false,
      "organization": "",
      "address": "1959 NE PACIFIC ST C212, BOX 356340",
      "city": "SEATTLE",
      "state": "WA",
      "zip": "981956340",
      "phone": "206-543-0065",
      "latitude": null,
      "longitude": null,
      "source": "NPPES"
    },
    {
      "npi": "1629045463",
      "name": "MICHAEL R CHUN, MD",
      "credentials": "MD",
      "specialty": "Neurology",
      "is_vascular_neurology": false,
      "organization": "",
      "address": "3901 HOYT AVE",
      "city": "EVERETT",
      "state": "WA",
      "zip": "982014918",
      "phone": "425-339-5408",
      "latitude": null,
      "longitude": null,
      "source": "NPPES"
    },
    {
      "npi": "1518283589",
      "name": "DEREK WILLIAM CLARK, M.D.",
      "credentials": "M.D.",
      "specialty": "Neurology",
      "is_vascular_neurology": false,
      "organization": "",
      "address": "9135 SW BARNES RD STE 461",
      "city": "PORTLAND",
      "state": "WA",
      "zip": "972256643",
      "phone": "503-216-1150",
      "latitude": null,
      "longitude": null,
      "source": "NPPES"
    },
    {
      "npi": "1801962923",
      "name": "JOHN ROBERT CLARK, MD",
      "credentials": "MD",
      "specialty": "Neurology",
      "is_vascular_neurology": false,
      "organization": "",
      "address": "42 EAST ROWAN SUITE B",
      "city": "SPOKANE",
      "state": "WA",
      "zip": "99207",
      "phone": "509-489-3879",
      "latitude": 47.6571934,
      "longitude": -117.42351,
      "source": "NPPES"
    },
    {
      "npi": "1447549183",
      "name": "TYLER ASPINWALL CLARK, M.D.",
      "credentials": "M.D.",
      "specialty": "Neurology",
      "is_vascular_neurology": false,
      "organization": "",
      "address": "2349 NE CONNERS AVE",
      "city": "BEND",
      "state": "WA",
      "zip": "97701",
      "phone": "541-317-0044",
      "latitude": null,
      "longitude": null,
      "source": "NPPES"
    },
    {
      "npi": "1427436088",
      "name": "ROBERT CLENDENIN, MD",
      "credentials": "MD",
      "specialty": "Neurology",
      "is_vascular_neurology": false,
      "organization": "",
      "address": "432 N BROADWAY AVE",
      "city": "SHAWNEE",
      "state": "WA",
      "zip": "748016922",
      "phone": "405-562-8380",
      "latitude": null,
      "longitude": null,
      "source": "NPPES"
    },
    {
      "npi": "1942237045",
      "name": "MICHAEL E. COATS, M.D.",
      "credentials": "M.D.",
      "specialty": "Neurology",
      "is_vascular_neurology": false,
      "organization": "",
      "address": "750 N SYRINGA ST SUITE 204",
      "city": "POST FALLS",
      "state": "WA",
      "zip": "838545275",
      "phone": "509-838-2531",
      "latitude": null,
      "longitude": null,
      "source": "NPPES"
    },
    {
      "npi": "1124480660",
      "name": "NICOLETTE COHEN",
      "credentials": "",
      "specialty": "Neurology",
      "is_vascular_neurology": false,
      "organization": "",
      "address": "9300 DEWITT LOOP",
      "city": "FORT BELVOIR",
      "state": "WA",
      "zip": "220605285",
      "phone": "571-231-2756",
      "latitude": null,
      "longitude": null,
      "source": "NPPES"
    },
    {
      "npi": "1699784561",
      "name": "A. THOMAS COLLINS, MD",
      "credentials": "MD",
      "specialty": "Neurology",
      "is_vascular_neurology": false,
      "organization": "",
      "address": "1600 116TH AVE NE SUITE #302",
      "city": "BELLEVUE",
      "state": "WA",
      "zip": "980043014",
      "phone": "425-455-5440",
      "latitude": null,
      "longitude": null,
      "source": "NPPES"
    },
    {
      "npi": "1457559403",
      "name": "",
      "credentials": "",
      "specialty": "Neurology",
      "is_vascular_neurology": false,
      "organization": "COMPREHENSIVE SLEEP MEDICINE INC PS",
      "address": "22220 MARINE VIEW DR S #200",
      "city": "DES MOINES",
      "state": "WA",
      "zip": "981986280",
      "phone": "206-824-3362",
      "latitude": null,
      "longitude": null,
      "source": "NPPES"
    },
    {
      "npi": "1477713626",
      "name": "",
      "credentials": "",
      "specialty": "Neurology",
      "is_vascular_neurology": false,
      "organization": "COMPREHENSIVE SLEEP MEDICINE INC, PS",
      "address": "16233 SYLVESTER RD SW #G70",
      "city": "BURIEN",
      "state": "WA",
      "zip": "981663045",
      "phone": "206-988-5779",
      "latitude": null,
      "longitude": null,
      "source": "NPPES"
    },
    {
      "npi": "1134249055",
      "name": "KELLY A. CONDEFER, MD",
      "credentials": "MD",
      "specialty": "Neurology",
      "is_vascular_neurology": false,
      "organization": "",
      "address": "820 N CHELAN AVE",
      "city": "WENATCHEE",
      "state": "WA",
      "zip": "988012028",
      "phone": "509-663-8711",
      "latitude": null,
      "longitude": null,
      "source": "NPPES"
    },
    {
      "npi": "1457373391",
      "name": "KEVIN F CONNOLLY, MD",
      "credentials": "MD",
      "specialty": "Neurology",
      "is_vascular_neurology": false,
      "organization": "",
      "address": "404-B BLACK HILLS LN SW",
      "city": "OLYMPIA",
      "state": "WA",
      "zip": "985028148",
      "phone": "360-438-2727",
      "latitude": null,
      "longitude": null,
      "source": "NPPES"
    },
    {
      "npi": "1891884755",
      "name": "FLAVIA B CONSENS, MD",
      "credentials": "MD",
      "specialty": "Neurology",
      "is_vascular_neurology": false,
      "organization": "",
      "address": "908 JEFFERSON ST FL 4",
      "city": "SEATTLE",
      "state": "WA",
      "zip": "981042433",
      "phone": "206-744-4998",
      "latitude": null,
      "longitude": null,
      "source": "NPPES"
    },
    {
      "npi": "1780612291",
      "name": "NELSON ROGER COOKE, M.D",
      "credentials": "M.D",
      "specialty": "Neurology",
      "is_vascular_neurology": false,
      "organization": "",
      "address": "212 E CENTRAL STE 440",
      "city": "SPOKANE",
      "state": "WA",
      "zip": "99208",
      "phone": "509-252-9602",
      "latitude": 47.6571934,
      "longitude": -117.42351,
      "source": "NPPES"
    },
    {
      "npi": "1700236080",
      "name": "NATHAN ALLEN COOMER, DPT, NCS",
      "credentials": "DPT, NCS",
      "specialty": "Neurology",
      "is_vascular_neurology": false,
      "organization": "",
      "address": "1600 E JEFFERSON ST SUITE A1",
      "city": "SEATTLE",
      "state": "WA",
      "zip": "981225698",
      "phone": "206-320-2200",
      "latitude": null,
      "longitude": null,
      "source": "NPPES"
    },
    {
      "npi": "1689646614",
      "name": "ALEX D COOPER, M.D.",
      "credentials": "M.D.",
      "specialty": "Neurology",
      "is_vascular_neurology": false,
      "organization": "",
      "address": "904 7TH AVE",
      "city": "SEATTLE",
      "state": "WA",
      "zip": "981041132",
      "phone": "206-329-1760",
      "latitude": null,
      "longitude": null,
      "source": "NPPES"
    },
    {
      "npi": "1720004120",
      "name": "SAMUEL E. COOR, DO",
      "credentials": "DO",
      "specialty": "Neurology",
      "is_vascular_neurology": false,
      "organization": "",
      "address": "405 46TH AVE NE",
      "city": "OLYMPIA",
      "state": "WA",
      "zip": "985061833",
      "phone": "360-951-5509",
      "latitude": null,
      "longitude": null,
      "source": "NPPES"
    },
    {
      "npi": "1215964499",
      "name": "JESSE J CORRY, MD",
      "credentials": "MD",
      "specialty": "Neurology",
      "is_vascular_neurology": false,
      "organization": "",
      "address": "3601 MINNESOTA DR STE 200",
      "city": "BLOOMINGTON",
      "state": "WA",
      "zip": "554355281",
      "phone": "612-879-1000",
      "latitude": null,
      "longitude": null,
      "source": "NPPES"
    },
    {
      "npi": "1588770093",
      "name": "RUXANDRA M COSTA, MD",
      "credentials": "MD",
      "specialty": "Neurology",
      "is_vascular_neurology": false,
      "organization": "",
      "address": "101 W 8TH AVE",
      "city": "SPOKANE",
      "state": "WA",
      "zip": "992042307",
      "phone": "509-474-2894",
      "latitude": null,
      "longitude": null,
      "source": "NPPES"
    },
    {
      "npi": "1619554359",
      "name": "IAN T COULTER",
      "credentials": "",
      "specialty": "Neurology",
      "is_vascular_neurology": false,
      "organization": "",
      "address": "1959 NE PACIFIC ST",
      "city": "SEATTLE",
      "state": "WA",
      "zip": "981950001",
      "phone": "206-769-1698",
      "latitude": null,
      "longitude": null,
      "source": "NPPES"
    },
    {
      "npi": "1154614469",
      "name": "JESSICA RENAE CRADDOCK, MD",
      "credentials": "MD",
      "specialty": "Neurology",
      "is_vascular_neurology": false,
      "organization": "",
      "address": "212 E CENTRAL AVE SUITE 440",
      "city": "SPOKANE",
      "state": "WA",
      "zip": "992086291",
      "phone": "509-252-9602",
      "latitude": null,
      "longitude": null,
      "source": "NPPES"
    },
    {
      "npi": "1336203868",
      "name": "DOUGLAS CRAGIN, M.D.",
      "credentials": "M.D.",
      "specialty": "Neurology",
      "is_vascular_neurology": false,
      "organization": "",
      "address": "710 BIRCHWOOD AVE STE 201",
      "city": "BELLINGHAM",
      "state": "WA",
      "zip": "982251720",
      "phone": "360-788-6870",
      "latitude": null,
      "longitude": null,
      "source": "NPPES"
    },
    {
      "npi": "1871858266",
      "name": "CARA SOMMER CRAM, DPT",
      "credentials": "DPT",
      "specialty": "Neurology",
      "is_vascular_neurology": false,
      "organization": "",
      "address": "2211 NE 139TH ST STE 200",
      "city": "VANCOUVER",
      "state": "WA",
      "zip": "986862742",
      "phone": "360-487-1777",
      "latitude": null,
      "longitude": null,
      "source": "NPPES"
    },
    {
      "npi": "1992239883",
      "name": "CHARLES P CROOKS, M.D.",
      "credentials": "M.D.",
      "specialty": "Neurology",
      "is_vascular_neurology": false,
      "organization": "",
      "address": "240 W THOMAS RD # 403",
      "city": "PHOENIX",
      "state": "WA",
      "zip": "850134407",
      "phone": "602-406-6262",
      "latitude": null,
      "longitude": null,
      "source": "NPPES"
    },
    {
      "npi": "1326307422",
      "name": "DAVID LLOYD CROXFORD, D.C.",
      "credentials": "D.C.",
      "specialty": "Neurology",
      "is_vascular_neurology": false,
      "organization": "",
      "address": "1420 3RD ST SE STE 202",
      "city": "PUYALLUP",
      "state": "WA",
      "zip": "983723730",
      "phone": "253-256-4818",
      "latitude": null,
      "longitude": null,
      "source": "NPPES"
    },
    {
      "npi": "1386955425",
      "name": "JENNIFER MARIE CRUM-BAILEY, D.O",
      "credentials": "D.O",
      "specialty": "Neurology",
      "is_vascular_neurology": false,
      "organization": "",
      "address": "9040A JACKSON AVE",
      "city": "JOINT BASE LEWIS MCCHORD",
      "state": "WA",
      "zip": "984310001",
      "phone": "253-968-1440",
      "latitude": null,
      "longitude": null,
      "source": "NPPES"
    },
    {
      "npi": "1023297769",
      "name": "CRISTINA CRUZ-CRESPO, MD",
      "credentials": "MD",
      "specialty": "Neurology",
      "is_vascular_neurology": false,
      "organization": "",
      "address": "MADIGAN ARMY MEDICAL CENTER-NEUROLOGY 9040A FITZSIMMONS DRIVE",
      "city": "TACOMA",
      "state": "WA",
      "zip": "984310001",
      "phone": "787-968-1754",
      "latitude": null,
      "longitude": null,
      "source": "NPPES"
    },
    {
      "npi": "1902123953",
      "name": "CHUNMEI CUI, MD",
      "credentials": "MD",
      "specialty": "Neurology",
      "is_vascular_neurology": false,
      "organization": "",
      "address": "7545 SE TUALATIN VALLEY HWY",
      "city": "HILLSBORO",
      "state": "WA",
      "zip": "971238252",
      "phone": "503-681-0816",
      "latitude": null,
      "longitude": null,
      "source": "NPPES"
    },
    {
      "npi": "1427502467",
      "name": "JEFFREY ALLEN CUMMINGS, PA",
      "credentials": "PA",
      "specialty": "Neurology",
      "is_vascular_neurology": false,
      "organization": "",
      "address": "3601 THE VANDERBILT CLINIC",
      "city": "NASHVILLE",
      "state": "WA",
      "zip": "372327802",
      "phone": "615-322-3000",
      "latitude": null,
      "longitude": null,
      "source": "NPPES"
    },
    {
      "npi": "1891180675",
      "name": "AMI Z. CUNEO",
      "credentials": "",
      "specialty": "Neurology",
      "is_vascular_neurology": false,
      "organization": "",
      "address": "1959 NE PACIFIC ST RM BB-527 BOX 356421",
      "city": "SEATTLE",
      "state": "WA",
      "zip": "981956421",
      "phone": "206-543-3605",
      "latitude": null,
      "longitude": null,
      "source": "NPPES"
    },
    {
      "npi": "1417033226",
      "name": "TODD JAY CZARTOSKI",
      "credentials": "",
      "specialty": "Neurology",
      "is_vascular_neurology": false,
      "organization": "",
      "address": "HARBORVIEW MEDICAL CENTER 325 9TH AVE",
      "city": "SEATTLE",
      "state": "WA",
      "zip": "98104",
      "phone": "206-731-3000",
      "latitude": 47.6043048,
      "longitude": -122.3240717,
      "source": "NPPES"
    },
    {
      "npi": "1811488455",
      "name": "SIDDHARTH DALAL, MD",
      "credentials": "MD",
      "specialty": "Neurology",
      "is_vascular_neurology": false,
      "organization": "",
      "address": "200 HAWTHORNE LN",
      "city": "CHARLOTTE",
      "state": "WA",
      "zip": "282042515",
      "phone": "704-384-9437",
      "latitude": null,
      "longitude": null,
      "source": "NPPES"
    },
    {
      "npi": "1164929170",
      "name": "VIKAS DALWADI, DO",
      "credentials": "DO",
      "specialty": "Neurology",
      "is_vascular_neurology": false,
      "organization": "",
      "address": "12039 NE 128TH ST STE 300",
      "city": "KIRKLAND",
      "state": "WA",
      "zip": "980343029",
      "phone": "425-899-3135",
      "latitude": null,
      "longitude": null,
      "source": "NPPES"
    },
    {
      "npi": "1275824252",
      "name": "ELIE DANCOUR",
      "credentials": "",
      "specialty": "Neurology",
      "is_vascular_neurology": false,
      "organization": "",
      "address": "355 W 16TH ST STE 5100 4TH FLOOR SUITE 401",
      "city": "INDIANAPOLIS",
      "state": "WA",
      "zip": "462022274",
      "phone": "317-396-1386",
      "latitude": null,
      "longitude": null,
      "source": "NPPES"
    },
    {
      "npi": "1609182070",
      "name": "",
      "credentials": "",
      "specialty": "Neurology",
      "is_vascular_neurology": false,
      "organization": "DAVID BRYAN RAMEY",
      "address": "212 E CENTRAL AVE SUITE 315",
      "city": "SPOKANE",
      "state": "WA",
      "zip": "992086291",
      "phone": "208-667-5536",
      "latitude": null,
      "longitude": null,
      "source": "NPPES"
    },
    {
      "npi": "1942316401",
      "name": "ARIELLE PATRICIA DAVIS, MD",
      "credentials": "MD",
      "specialty": "Neurology",
      "is_vascular_neurology": false,
      "organization": "",
      "address": "325 9TH AVE # 359775",
      "city": "SEATTLE",
      "state": "WA",
      "zip": "981042420",
      "phone": "206-744-3251",
      "latitude": null,
      "longitude": null,
      "source": "NPPES"
    },
    {
      "npi": "1487095659",
      "name": "JARED DAVIS, M.D.",
      "credentials": "M.D.",
      "specialty": "Neurology",
      "is_vascular_neurology": false,
      "organization": "",
      "address": "5841 S MARYLAND AVE # MC2030",
      "city": "CHICAGO",
      "state": "WA",
      "zip": "606371447",
      "phone": "773-702-6390",
      "latitude": null,
      "longitude": null,
      "source": "NPPES"
    },
    {
      "npi": "1831485846",
      "name": "JENNIFER LELIA DAVIS, DO",
      "credentials": "DO",
      "specialty": "Neurology",
      "is_vascular_neurology": false,
      "organization": "",
      "address": "22620 SE 216TH PL STE E",
      "city": "MAPLE VALLEY",
      "state": "WA",
      "zip": "980386346",
      "phone": "425-200-4546",
      "latitude": null,
      "longitude": null,
      "source": "NPPES"
    },
    {
      "npi": "1205082328",
      "name": "MARIE YNEZ DAVIS, M.D., Ph.D.",
      "credentials": "M.D., Ph.D.",
      "specialty": "Neurology",
      "is_vascular_neurology": false,
      "organization": "",
      "address": "1959 NE PACIFIC ST",
      "city": "SEATTLE",
      "state": "WA",
      "zip": "981956421",
      "phone": "206-598-7688",
      "latitude": null,
      "longitude": null,
      "source": "NPPES"
    },
    {
      "npi": "1437511615",
      "name": "BENJAMIN DEAN, MD, Ph.D.",
      "credentials": "MD, Ph.D.",
      "specialty": "Neurology",
      "is_vascular_neurology": false,
      "organization": "",
      "address": "1959 NE PACIFIC ST",
      "city": "SEATTLE",
      "state": "WA",
      "zip": "981950001",
      "phone": "206-520-5000",
      "latitude": null,
      "longitude": null,
      "source": "NPPES"
    },
    {
      "npi": "1952719239",
      "name": "KATHLEEN DEATON, PT, DPT",
      "credentials": "PT, DPT",
      "specialty": "Neurology",
      "is_vascular_neurology": false,
      "organization": "",
      "address": "1959 NE PACIFIC ST BOX 356154",
      "city": "SEATTLE",
      "state": "WA",
      "zip": "981950001",
      "phone": "206-598-8161",
      "latitude": null,
      "longitude": null,
      "source": "NPPES"
    },
    {
      "npi": "1669764924",
      "name": "DAVID HARRIS DELMAN, M.D.",
      "credentials": "M.D.",
      "specialty": "Neurology",
      "is_vascular_neurology": false,
      "organization": "",
      "address": "19260 SW 65TH AVE MEDICAL PLAZA TWO, SUITE 280",
      "city": "TUALATIN",
      "state": "WA",
      "zip": "970625701",
      "phone": "503-692-2850",
      "latitude": null,
      "longitude": null,
      "source": "NPPES"
    },
    {
      "npi": "1952458812",
      "name": "CURTIS DELONEY, MD",
      "credentials": "MD",
      "specialty": "Neurology",
      "is_vascular_neurology": false,
      "organization": "",
      "address": "505 NE 87TH AVE STE 460",
      "city": "VANCOUVER",
      "state": "WA",
      "zip": "986641965",
      "phone": "360-514-7771",
      "latitude": null,
      "longitude": null,
      "source": "NPPES"
    },
    {
      "npi": "1922217678",
      "name": "NATASHA VANESSA DEMATTOS, M.D.",
      "credentials": "M.D.",
      "specialty": "Neurology",
      "is_vascular_neurology": false,
      "organization": "",
      "address": "1212 N PINES RD",
      "city": "SPOKANE VALLEY",
      "state": "WA",
      "zip": "992064939",
      "phone": "509-893-8140",
      "latitude": null,
      "longitude": null,
      "source": "NPPES"
    },
    {
      "npi": "1386854974",
      "name": "JOHN DEMPSTER, M.D.",
      "credentials": "M.D.",
      "specialty": "Neurology",
      "is_vascular_neurology": false,
      "organization": "",
      "address": "2121 NE 139TH ST MEDICAL OFFICE BUILDING A, SUITE 400",
      "city": "VANCOUVER",
      "state": "WA",
      "zip": "986862316",
      "phone": "360-487-4707",
      "latitude": null,
      "longitude": null,
      "source": "NPPES"
    },
    {
      "npi": "1760800932",
      "name": "DHAVAL PRAFUL DESAI, M.D.",
      "credentials": "M.D.",
      "specialty": "Neurology",
      "is_vascular_neurology": false,
      "organization": "",
      "address": "1100 9TH AVE",
      "city": "SEATTLE",
      "state": "WA",
      "zip": "981012756",
      "phone": "206-341-0420",
      "latitude": null,
      "longitude": null,
      "source": "NPPES"
    },
    {
      "npi": "1841496908",
      "name": "THOMAS ANDREW DEUEL, M.D., Ph.D.",
      "credentials": "M.D., Ph.D.",
      "specialty": "Neurology",
      "is_vascular_neurology": false,
      "organization": "",
      "address": "55 FRUIT ST VBK915",
      "city": "BOSTON",
      "state": "WA",
      "zip": "021142621",
      "phone": "617-726-1067",
      "latitude": null,
      "longitude": null,
      "source": "NPPES"
    },
    {
      "npi": "1265806004",
      "name": "CHRISTINA DHESI-BAWA, PT, DPT",
      "credentials": "PT, DPT",
      "specialty": "Neurology",
      "is_vascular_neurology": false,
      "organization": "",
      "address": "700 LILLY RD NE",
      "city": "OLYMPIA",
      "state": "WA",
      "zip": "985065115",
      "phone": "360-923-7000",
      "latitude": null,
      "longitude": null,
      "source": "NPPES"
    },
    {
      "npi": "1982910295",
      "name": "",
      "credentials": "",
      "specialty": "Neurology",
      "is_vascular_neurology": false,
      "organization": "DIABLO NEUROLOGY INC.",
      "address": "585 W LOOKOUT RIDGE DR",
      "city": "WASHOUGAL",
      "state": "WA",
      "zip": "986717595",
      "phone": "925-299-9022",
      "latitude": null,
      "longitude": null,
      "source": "NPPES"
    },
    {
      "npi": "1609098896",
      "name": "SALIM DIB, M.D.",
      "credentials": "M.D.",
      "specialty": "Neurology",
      "is_vascular_neurology": false,
      "organization": "",
      "address": "1120 NW 14TH ST SUITE 1330",
      "city": "MIAMI",
      "state": "WA",
      "zip": "331362107",
      "phone": "305-243-5812",
      "latitude": null,
      "longitude": null,
      "source": "NPPES"
    },
    {
      "npi": "1124088406",
      "name": "MARLENE DIETRICH, M.D",
      "credentials": "M.D",
      "specialty": "Neurology",
      "is_vascular_neurology": false,
      "organization": "",
      "address": "505 NE 87TH AVE STE. 460",
      "city": "VANCOUVER",
      "state": "WA",
      "zip": "986641989",
      "phone": "360-514-7771",
      "latitude": null,
      "longitude": null,
      "source": "NPPES"
    },
    {
      "npi": "1730209248",
      "name": "LISA BARTON DILLER, PT",
      "credentials": "PT",
      "specialty": "Neurology",
      "is_vascular_neurology": false,
      "organization": "",
      "address": "10014 128TH AVE NE",
      "city": "KIRKLAND",
      "state": "WA",
      "zip": "980335211",
      "phone": "425-260-0427",
      "latitude": null,
      "longitude": null,
      "source": "NPPES"
    },
    {
      "npi": "1942385745",
      "name": "BARBARA JANE DISTAD",
      "credentials": "",
      "specialty": "Neurology",
      "is_vascular_neurology": false,
      "organization": "",
      "address": "UNIVERSITY OF WASHINGTON MEDICAL CTR 1959 NE PACIFIC ST",
      "city": "SEATTLE",
      "state": "WA",
      "zip": "981956166",
      "phone": "206-598-5068",
      "latitude": null,
      "longitude": null,
      "source": "NPPES"
    },
    {
      "npi": "1538282736",
      "name": "WILLIAM BRIAN DOBYNS, M.D.",
      "credentials": "M.D.",
      "specialty": "Neurology",
      "is_vascular_neurology": false,
      "organization": "",
      "address": "5841 S MARYLAND AVE MC 0077",
      "city": "CHICAGO",
      "state": "WA",
      "zip": "606371447",
      "phone": "773-834-0525",
      "latitude": null,
      "longitude": null,
      "source": "NPPES"
    },
    {
      "npi": "1952468142",
      "name": "CARL B DODRILL",
      "credentials": "",
      "specialty": "Neurology",
      "is_vascular_neurology": false,
      "organization": "",
      "address": "HARBORVIEW MEDICAL CENTER 325 9TH AVE",
      "city": "SEATTLE",
      "state": "WA",
      "zip": "981049745",
      "phone": "206-731-3576",
      "latitude": null,
      "longitude": null,
      "source": "NPPES"
    },
    {
      "npi": "1033299953",
      "name": "MICHAEL J DOHERTY, MD",
      "credentials": "MD",
      "specialty": "Neurology",
      "is_vascular_neurology": false,
      "organization": "",
      "address": "550 17TH AVE FIFTH FLOOR",
      "city": "SEATTLE",
      "state": "WA",
      "zip": "981225788",
      "phone": "206-386-3880",
      "latitude": null,
      "longitude": null,
      "source": "NPPES"
    },
    {
      "npi": "1831108455",
      "name": "WILLIAM K. DOMARAD, D.O.",
      "credentials": "D.O.",
      "specialty": "Neurology",
      "is_vascular_neurology": false,
      "organization": "",
      "address": "505 NE 87TH AVE STE 460",
      "city": "VANCOUVER",
      "state": "WA",
      "zip": "986641965",
      "phone": "360-514-7771",
      "latitude": null,
      "longitude": null,
      "source": "NPPES"
    },
    {
      "npi": "1457363152",
      "name": "",
      "credentials": "",
      "specialty": "Neurology",
      "is_vascular_neurology": false,
      "organization": "DONALD J ROSS MD PS",
      "address": "2271 NE 51ST STREET",
      "city": "SEATTLE",
      "state": "WA",
      "zip": "981055713",
      "phone": "206-522-8553",
      "latitude": null,
      "longitude": null,
      "source": "NPPES"
    },
    {
      "npi": "1346403383",
      "name": "STACY L. DONLON, MD",
      "credentials": "MD",
      "specialty": "Neurology",
      "is_vascular_neurology": false,
      "organization": "",
      "address": "915 6TH AVE STE 100",
      "city": "TACOMA",
      "state": "WA",
      "zip": "984054682",
      "phone": "253-403-7277",
      "latitude": null,
      "longitude": null,
      "source": "NPPES"
    },
    {
      "npi": "1811573462",
      "name": "CHELSEA DONNET, MD",
      "credentials": "MD",
      "specialty": "Neurology",
      "is_vascular_neurology": false,
      "organization": "",
      "address": "1135 116TH AVE NE STE 500",
      "city": "BELLEVUE",
      "state": "WA",
      "zip": "980044627",
      "phone": "425-635-6560",
      "latitude": null,
      "longitude": null,
      "source": "NPPES"
    },
    {
      "npi": "1295791713",
      "name": "MEGHANA DORESWAMY, M.B.B.S.",
      "credentials": "M.B.B.S.",
      "specialty": "Neurology",
      "is_vascular_neurology": false,
      "organization": "",
      "address": "904 7TH AVE",
      "city": "SEATTLE",
      "state": "WA",
      "zip": "981041132",
      "phone": "206-860-4542",
      "latitude": null,
      "longitude": null,
      "source": "NPPES"
    },
    {
      "npi": "1932593423",
      "name": "ALEXANDER JAMES DOUD, M.D.",
      "credentials": "M.D.",
      "specialty": "Neurology",
      "is_vascular_neurology": false,
      "organization": "",
      "address": "105 W 8TH AVE STE 318C",
      "city": "SPOKANE",
      "state": "WA",
      "zip": "992042318",
      "phone": "509-474-6650",
      "latitude": null,
      "longitude": null,
      "source": "NPPES"
    }
  ]
}